[
  {
    "name": "クローバーケア新宿",
    "address": "東京都新宿区高田馬場４－２２－４６ザ・テラス２０４",
    "lng": 139.70056,
    "lat": 35.71047
  },
  {
    "name": "あっぷる訪問看護ステーション",
    "address": "東京都荒川区西尾久３－２５－１９小台橋コーポ１階",
    "lng": 139.76189,
    "lat": 35.75291
  },
  {
    "name": "くまのまえ訪問サービスセンター",
    "address": "東京都荒川区東尾久３－１９－８ＴＣビル２階",
    "lng": 139.77121,
    "lat": 35.74717
  },
  {
    "name": "有限会社　ナックス",
    "address": "東京都千代田区富士見１－５－１　パラシオン飯田橋５０３号",
    "lng": 139.74664,
    "lat": 35.69884
  },
  {
    "name": "ニチイケアセンター神田",
    "address": "東京都千代田区神田小川町１－１山甚ビル６Ｆ",
    "lng": 139.76689,
    "lat": 35.69491
  },
  {
    "name": "有限会社　サン・居宅支援・介護サービス",
    "address": "東京都千代田区麹町３丁目４番地　啓ビル１Ｆ",
    "lng": 139.73766,
    "lat": 35.68496
  },
  {
    "name": "株式会社　ニッカ・コミュニケーションズ",
    "address": "東京都世田谷区等々力六丁目３７番３号　２０２",
    "lng": 139.65959,
    "lat": 35.61346
  },
  {
    "name": "株式会社ふれんどりーホームサービス",
    "address": "東京都千代田区神田岩本町四番地　都築ビル８階",
    "lng": 139.77463,
    "lat": 35.69441
  },
  {
    "name": "ケアエイド・パール",
    "address": "東京都千代田区三番町７－２ヴィラロイヤル三番町６０３",
    "lng": 139.74153,
    "lat": 35.68971
  },
  {
    "name": "コスモスケアステーション",
    "address": "東京都港区新橋６－５－４ＤＩＫマンション８０３",
    "lng": 139.75447,
    "lat": 35.66211
  },
  {
    "name": "株式会社　ベストサポート日本橋　ヘルパーステーション",
    "address": "東京都中央区日本橋本石町四丁目5番15号",
    "lng": 139.77084,
    "lat": 35.689
  },
  {
    "name": "訪問介護　エンゼル",
    "address": "東京都中央区勝どき２－１０－１４－３０５",
    "lng": 139.77753,
    "lat": 35.65879
  },
  {
    "name": "ニチイケアセンター新富",
    "address": "東京都中央区銀座１－１６－６鈴常ビル２階",
    "lng": 139.7706,
    "lat": 35.67412
  },
  {
    "name": "ふれあいプラザ　ラビット",
    "address": "東京都江戸川区西葛西３－２２－１５",
    "lng": 139.85956,
    "lat": 35.66769
  },
  {
    "name": "エールハート本部",
    "address": "東京都中央区銀座３－１１－１ニュー銀座ビル８階",
    "lng": 139.76842,
    "lat": 35.67069
  },
  {
    "name": "東京介護ステーション",
    "address": "東京都中央区新富２－５－１０新富ビル２F",
    "lng": 139.77388,
    "lat": 35.67169
  },
  {
    "name": "こまえケアサービス",
    "address": "東京都狛江市中和泉１－９－５",
    "lng": 139.57555,
    "lat": 35.63547
  },
  {
    "name": "グリーンハウス",
    "address": "東京都目黒区目黒２－９－３メグロフラッツ２０３",
    "lng": 139.70938,
    "lat": 35.63344
  },
  {
    "name": "クローバーケアステーション",
    "address": "東京都中央区築地５－６－１０浜離宮パークサイドプレイス２階",
    "lng": 139.76543,
    "lat": 35.66261
  },
  {
    "name": "アソシケア　ゆうゆう　ヘルパーステーション",
    "address": "東京都中央区月島３－１１－６",
    "lng": 139.78168,
    "lat": 35.66259
  },
  {
    "name": "大江戸ケアセンター",
    "address": "東京都中央区築地２－７－１２　１５山京ビル３０８",
    "lng": 139.7726,
    "lat": 35.66978
  },
  {
    "name": "グッドライフケア訪問介護　中央",
    "address": "東京都中央区新川１－１１－１１東京冷凍新川ビル３Ｆ",
    "lng": 139.78198,
    "lat": 35.67661
  },
  {
    "name": "ヘルパーステーションあいおい",
    "address": "東京都中央区佃３－１－１５　Ｂ１",
    "lng": 139.78703,
    "lat": 35.66563
  },
  {
    "name": "アイム介護福祉支援センター",
    "address": "東京都港区北青山１－３－１鹿島ビル５階",
    "lng": 139.72273,
    "lat": 35.67251
  },
  {
    "name": "三宅島社会福祉協議会　指定訪問介護事業",
    "address": "東京都三宅島三宅村阿古４９７　三宅村役場臨時庁舎内",
    "lng": 139.47989,
    "lat": 34.07613
  },
  {
    "name": "養和会訪問介護事業所",
    "address": "東京都八丈島八丈町大賀郷７６７０番地１",
    "lng": 139.77177,
    "lat": 33.11015
  },
  {
    "name": "ニチイケアセンターしろかね",
    "address": "東京都港区白金３－３－１",
    "lng": 139.7299,
    "lat": 35.64646
  },
  {
    "name": "有限会社　はなみずき",
    "address": "東京都港区高輪２－１５－３１高輪グランドパームス２０４号室",
    "lng": 139.73836,
    "lat": 35.63694
  },
  {
    "name": "有限会社　福祉なんでも屋",
    "address": "東京都大島町差木地クダッチ",
    "lng": 139.42119,
    "lat": 34.70663
  },
  {
    "name": "株式会社　緑祥",
    "address": "東京都港区赤坂６－４－１７",
    "lng": 139.73483,
    "lat": 35.67044
  },
  {
    "name": "こめつつじ会訪問介護事業所",
    "address": "東京都港区東麻布３－５－１５瀬里奈グリーンハイツ８０３号",
    "lng": 139.7375,
    "lat": 35.65689
  },
  {
    "name": "有限会社　すばる介護センター",
    "address": "東京都港区高輪３－２－３Ｔ３２３プレイスビル２階",
    "lng": 139.73265,
    "lat": 35.63532
  },
  {
    "name": "マスヤマケアセンター",
    "address": "東京都港区南麻布２－９－１７",
    "lng": 139.73395,
    "lat": 35.64853
  },
  {
    "name": "あおぞら港事業所",
    "address": "東京都港区芝５－１３－５Ｆ・Ｄ三田ビル１階",
    "lng": 139.74503,
    "lat": 35.64929
  },
  {
    "name": "サン介護サービスセンター",
    "address": "東京都港区白金五丁目１２番２４号サンワコービル３階",
    "lng": 139.72408,
    "lat": 35.64524
  },
  {
    "name": "Ｋ港ステーション",
    "address": "東京都港区白金台２－２３－４",
    "lng": 139.72865,
    "lat": 35.63317
  },
  {
    "name": "ぷちとまと・けあ",
    "address": "東京都港区三田２－７－９サニークレスト三田７０５号室",
    "lng": 139.74403,
    "lat": 35.65153
  },
  {
    "name": "キヨタ芝浦介護サービス",
    "address": "東京都港区芝浦４－３－４田町きよたビル３階",
    "lng": 139.74324,
    "lat": 35.63935
  },
  {
    "name": "ファミリーケア　みたて",
    "address": "東京都港区港南４－５－３",
    "lng": 139.74652,
    "lat": 35.62625
  },
  {
    "name": "東電さわやかケア東京・訪問介護",
    "address": "東京都港区東麻布３－１０－３マルベリービル６階",
    "lng": 139.73857,
    "lat": 35.65583
  },
  {
    "name": "びとく",
    "address": "東京都新宿区若葉１－８",
    "lng": 139.72581,
    "lat": 35.6857
  },
  {
    "name": "株式会社　大起エンゼルヘルプ　新宿ケアセンター",
    "address": "東京都新宿区大久保２－３２－８オークボニュープラザ１階",
    "lng": 139.70268,
    "lat": 35.7019
  },
  {
    "name": "株式会社　サン・ケアネット",
    "address": "東京都新宿区新宿一丁目２０番１３号花園公園ビル１０階",
    "lng": 139.71252,
    "lat": 35.68918
  },
  {
    "name": "株式会社　畑中ケアサービス",
    "address": "東京都新宿区大久保一丁目１６番２３号",
    "lng": 139.70265,
    "lat": 35.70026
  },
  {
    "name": "なのはな",
    "address": "東京都新宿区信濃町２１－７森田ビル",
    "lng": 139.71999,
    "lat": 35.68245
  },
  {
    "name": "株式会社Ｋ－ＷＯＲＫＥＲ",
    "address": "東京都新宿区四谷４－１３－３５ＫＭビル１階",
    "lng": 139.71721,
    "lat": 35.68905
  },
  {
    "name": "ニチイケアセンター四谷",
    "address": "東京都新宿区新宿５－９－６ＵＩビル３Ｆ",
    "lng": 139.70869,
    "lat": 35.69258
  },
  {
    "name": "ニチイケアセンター高田馬場",
    "address": "東京都新宿区高田馬場１－１６－３７－１０１",
    "lng": 139.70639,
    "lat": 35.71062
  },
  {
    "name": "有限会社　まごころホームケアサービス",
    "address": "東京都新宿区天神町６６番１０号　市川ビル１０２号",
    "lng": 139.73003,
    "lat": 35.70554
  },
  {
    "name": "アオバケアサービス",
    "address": "東京都新宿区中落合２－４－１　間世田ビル３０１号",
    "lng": 139.69368,
    "lat": 35.72095
  },
  {
    "name": "コミュニティケア　パル新宿・中野",
    "address": "東京都新宿区高田馬場３－７－５　グリーンハイツ斉藤１０３",
    "lng": 139.70117,
    "lat": 35.71412
  },
  {
    "name": "日生ホームヘルプサービス",
    "address": "東京都新宿区河田町７－５Ｔビル２階",
    "lng": 139.7191,
    "lat": 35.69665
  },
  {
    "name": "ハート介護サービス新宿",
    "address": "東京都新宿区高田馬場２－１８－６柳屋ビル４階",
    "lng": 139.70497,
    "lat": 35.71379
  },
  {
    "name": "ニチイケアセンター神楽坂",
    "address": "東京都新宿区横寺町１３番メゾン藤１階",
    "lng": 139.73515,
    "lat": 35.70242
  },
  {
    "name": "特定非営利活動法人　フットワーク新宿",
    "address": "東京都新宿区西早稲田３－１３－１５",
    "lng": 139.71391,
    "lat": 35.71015
  },
  {
    "name": "やさしい手新宿訪問介護事業所",
    "address": "東京都新宿区西新宿７－５－２０新宿旭ビルＡ館６０１",
    "lng": 139.6982,
    "lat": 35.69771
  },
  {
    "name": "あさがお介護サービス",
    "address": "東京都新宿区下宮比町２－７　ドメインビル３階",
    "lng": 139.7437,
    "lat": 35.70352
  },
  {
    "name": "有限会社　メディカル・ケアサポートツウェンティワン",
    "address": "東京都杉並区井草一丁目４番７号　サンコート井草２０６",
    "lng": 139.62209,
    "lat": 35.72488
  },
  {
    "name": "白十字ヘルパーステーション",
    "address": "東京都新宿区市谷砂土原町二丁目７番地ディアコート砂土原２０４",
    "lng": 139.73558,
    "lat": 35.69558
  },
  {
    "name": "アースサポート新宿",
    "address": "東京都新宿区新宿１－３０－４",
    "lng": 139.71259,
    "lat": 35.69014
  },
  {
    "name": "聖母ホームヘルパーステーション",
    "address": "東京都新宿区中落合二丁目５番２１号",
    "lng": 139.69417,
    "lat": 35.71974
  },
  {
    "name": "在宅介護センター　ツーベアー",
    "address": "東京都新宿区新宿七丁目２２番地１４号",
    "lng": 139.71049,
    "lat": 35.6997
  },
  {
    "name": "東京山の手まごころサービス",
    "address": "東京都新宿区高田馬場一丁目３２番地７号　信ビル３０１号",
    "lng": 139.70357,
    "lat": 35.71061
  },
  {
    "name": "株式会社シーエスケア　ケアステーションあゆみ",
    "address": "東京都新宿区新宿２－１３－１０エルハイム新宿９０６号",
    "lng": 139.7085,
    "lat": 35.69011
  },
  {
    "name": "モテギケアサービス　新宿",
    "address": "東京都新宿区上落合１－９－１１レミコ学院ビル１Ｆ",
    "lng": 139.69189,
    "lat": 35.71382
  },
  {
    "name": "小林ケアサービス",
    "address": "東京都新宿区岩戸町２番１－１４０３号",
    "lng": 139.73709,
    "lat": 35.70181
  },
  {
    "name": "株式会社Ｋ－ＷＯＲＫＥＲ　大久保営業所",
    "address": "東京都新宿区北新宿三丁目１０番１０号柏木ローズマンション１０３号",
    "lng": 139.69075,
    "lat": 35.70206
  },
  {
    "name": "アースサポート高田馬場",
    "address": "東京都新宿区高田馬場３－２４－５",
    "lng": 139.69693,
    "lat": 35.71192
  },
  {
    "name": "歩くまごの手",
    "address": "東京都新宿区西新宿四丁目３１番３号　永谷リヴュール新宿８１６",
    "lng": 139.68851,
    "lat": 35.68835
  },
  {
    "name": "企業組合　ロマン交通　らくだサービス",
    "address": "東京都江戸川区東瑞江２－４９－１２",
    "lng": 139.89554,
    "lat": 35.68759
  },
  {
    "name": "日本リック訪問介護事業所",
    "address": "東京都新宿区北新宿４－１１－１３せらび新宿１階",
    "lng": 139.69284,
    "lat": 35.7079
  },
  {
    "name": "ＮＰＯマイフレンド",
    "address": "東京都板橋区小茂根四丁目２８番６号　第２ＫＵハイム２０５号",
    "lng": 139.67252,
    "lat": 35.74501
  },
  {
    "name": "ふらわーひる介護サービス",
    "address": "東京都渋谷区千駄ヶ谷５－５－６御苑ホームズ４０２",
    "lng": 139.70683,
    "lat": 35.68217
  },
  {
    "name": "戸山のさくらんぼ",
    "address": "東京都新宿区戸山２－３－１１８",
    "lng": 139.71568,
    "lat": 35.70389
  },
  {
    "name": "日本リック訪問介護早稲田事業所",
    "address": "東京都新宿区西早稲田３－２３－８早稲田セントラルハイツ１０１号",
    "lng": 139.71254,
    "lat": 35.7134
  },
  {
    "name": "東電さわやかケア神楽坂・訪問介護",
    "address": "東京都新宿区矢来町５７番キャップス神楽坂２階",
    "lng": 139.73267,
    "lat": 35.70391
  },
  {
    "name": "ケアサポートこの花中井事業所",
    "address": "東京都新宿区中井１－９－９サンハイツ中井１－B",
    "lng": 139.68272,
    "lat": 35.71441
  },
  {
    "name": "有限会社　渡瀬",
    "address": "東京都文京区本駒込１－２１－１４",
    "lng": 139.752,
    "lat": 35.72641
  },
  {
    "name": "ケアワーク弥生　介護サービス部",
    "address": "東京都文京区弥生二丁目１５番１３号",
    "lng": 139.76331,
    "lat": 35.71692
  },
  {
    "name": "東京保健生活協同組合　介護センター健生",
    "address": "東京都文京区大塚６－９－１０",
    "lng": 139.72627,
    "lat": 35.72601
  },
  {
    "name": "有限会社あゆみ介護文京",
    "address": "東京都文京区千駄木５－２８－５",
    "lng": 139.7589,
    "lat": 35.72733
  },
  {
    "name": "ニチイケアセンター茗荷谷",
    "address": "東京都文京区春日２－１０－１５　志知ビル２階",
    "lng": 139.74179,
    "lat": 35.71294
  },
  {
    "name": "有限会社　トチギ介護サービス",
    "address": "東京都文京区向丘２－３４－１２清水ビル１階",
    "lng": 139.75603,
    "lat": 35.72382
  },
  {
    "name": "老松ケアサービス",
    "address": "東京都文京区大塚五丁目１５番１０号　三恵ビル１階",
    "lng": 139.73,
    "lat": 35.72358
  },
  {
    "name": "有限会社　加藤介護サービス",
    "address": "東京都文京区本駒込１－２５－２４",
    "lng": 139.75082,
    "lat": 35.72786
  },
  {
    "name": "ケアメイト目黒訪問介護事業所",
    "address": "東京都目黒区鷹番２－１７－１１イムーブル鷹番Ａ－２",
    "lng": 139.68692,
    "lat": 35.62723
  },
  {
    "name": "龍岡ヘルパーステーション",
    "address": "東京都文京区湯島４－９－８",
    "lng": 139.76476,
    "lat": 35.7096
  },
  {
    "name": "有限会社　アドワンス　サポート・コスモス",
    "address": "東京都文京区千駄木４－１０－１５",
    "lng": 139.75821,
    "lat": 35.73081
  },
  {
    "name": "音羽介護サービス",
    "address": "東京都文京区音羽１－２０－２　音羽ダイコクビル４０４号",
    "lng": 139.729,
    "lat": 35.7155
  },
  {
    "name": "ふれあい",
    "address": "東京都文京区音羽２－１１－２５森田マンション５０２",
    "lng": 139.72679,
    "lat": 35.7195
  },
  {
    "name": "カインド・ケア・ステーション文京",
    "address": "東京都文京区湯島四丁目６番１２号湯島ハイタウンＢ棟９－９１６",
    "lng": 139.76807,
    "lat": 35.70858
  },
  {
    "name": "ヘルパーステーション　せら",
    "address": "東京都文京区本郷３－１５－２本郷二村ビル２０１",
    "lng": 139.76172,
    "lat": 35.70471
  },
  {
    "name": "アースサポート文京",
    "address": "東京都文京区向丘１－９－１７",
    "lng": 139.75337,
    "lat": 35.72204
  },
  {
    "name": "テルウェル東日本　文京介護センタ",
    "address": "東京都文京区白山１－６－５　シルバープラザ白山１０１号室",
    "lng": 139.75215,
    "lat": 35.71582
  },
  {
    "name": "まごのて白山",
    "address": "東京都文京区白山１－１９－１２－２０１",
    "lng": 139.75185,
    "lat": 35.71756
  },
  {
    "name": "プーさんの家",
    "address": "東京都中央区佃２－１６－７－６０１",
    "lng": 139.78464,
    "lat": 35.66553
  },
  {
    "name": "佐々木ケアサービス株式会社在宅介護事業部千駄木営業所",
    "address": "東京都文京区千駄木４－１－２２",
    "lng": 139.76003,
    "lat": 35.73124
  },
  {
    "name": "有限会社　リンデンケア",
    "address": "東京都文京区小石川３－２７－６コスモ小石川１０２",
    "lng": 139.7507,
    "lat": 35.713
  },
  {
    "name": "ケアステーションふくしあ文京",
    "address": "東京都文京区本駒込４－３９－２－１０３",
    "lng": 139.75757,
    "lat": 35.73256
  },
  {
    "name": "有限会社　あけぼの",
    "address": "東京都台東区浅草橋五丁目５番１０号イトウ第二ビル１階",
    "lng": 139.78093,
    "lat": 35.69984
  },
  {
    "name": "株式会社　大起エンゼルヘルプ　台東ケアセンター",
    "address": "東京都台東区浅草７－５－４",
    "lng": 139.80212,
    "lat": 35.71707
  },
  {
    "name": "ホームヘルプサービス　ソラスト台東",
    "address": "東京都台東区台東２－３－６ソラスト台東ビル",
    "lng": 139.77986,
    "lat": 35.70256
  },
  {
    "name": "同愛サポート",
    "address": "東京都台東区下谷二丁目１２番２号",
    "lng": 139.78322,
    "lat": 35.72237
  },
  {
    "name": "みのわホームヘルプステーション",
    "address": "東京都台東区三ノ輪一丁目２７番１１号",
    "lng": 139.79225,
    "lat": 35.72925
  },
  {
    "name": "ニチイケアセンター台東",
    "address": "東京都台東区元浅草１－１－８内山ビル１Ｆ",
    "lng": 139.78471,
    "lat": 35.70697
  },
  {
    "name": "特定非営利活動法人　社会福祉サービス　マザリーエフ",
    "address": "東京都台東区根岸５－１０－１３",
    "lng": 139.78711,
    "lat": 35.72751
  },
  {
    "name": "おおきなき台東",
    "address": "東京都台東区上野７－１１－７　川村ビル６０１",
    "lng": 139.78001,
    "lat": 35.71605
  },
  {
    "name": "株式会社　ホクリン",
    "address": "東京都台東区浅草２－２７－９－１０３クレッセントコート浅草",
    "lng": 139.79526,
    "lat": 35.71638
  },
  {
    "name": "日本在宅サービス",
    "address": "東京都台東区東上野４－２６－７　三和ビル５Ｆ",
    "lng": 139.78038,
    "lat": 35.71487
  },
  {
    "name": "ホームヘルプサービス・タンポポ",
    "address": "東京都台東区東浅草一丁目１１番５号",
    "lng": 139.80042,
    "lat": 35.72199
  },
  {
    "name": "アイ愛介護サービス",
    "address": "東京都台東区池之端２－８－９",
    "lng": 139.76674,
    "lat": 35.71657
  },
  {
    "name": "区民介護株式会社ほのぼのステーション上野",
    "address": "東京都台東区松が谷３－１３－５佐藤ビル１Ｆ",
    "lng": 139.78749,
    "lat": 35.71603
  },
  {
    "name": "あやの実ヘルパーステーション",
    "address": "東京都台東区駒形二丁目１番２１号　リバーサイド駒形１Ｆ",
    "lng": 139.79543,
    "lat": 35.70667
  },
  {
    "name": "ヘルパーステーション　ふるさと",
    "address": "東京都台東区千束４－３９－６　２階",
    "lng": 139.79568,
    "lat": 35.72524
  },
  {
    "name": "いきいきらいふ　ケアサービス",
    "address": "東京都台東区北上野２－６－１４北上野ビル３階",
    "lng": 139.78325,
    "lat": 35.71608
  },
  {
    "name": "有限会社さくらサービス",
    "address": "東京都台東区小島２－１７－８　ネギシセレッソ２０５",
    "lng": 139.78308,
    "lat": 35.70625
  },
  {
    "name": "ゆうあい",
    "address": "東京都台東区清川２－２－３",
    "lng": 139.80348,
    "lat": 35.72641
  },
  {
    "name": "ケア２１台東",
    "address": "東京都台東区千束２－１－８三井ビル１階",
    "lng": 139.79099,
    "lat": 35.71947
  },
  {
    "name": "ヨウコーフォレスト西台　訪問介護",
    "address": "東京都板橋区高島平１－３－１１",
    "lng": 139.673,
    "lat": 35.78206
  },
  {
    "name": "ヘルパーステーション「あさがお」",
    "address": "東京都台東区竜泉三丁目１番２号",
    "lng": 139.79535,
    "lat": 35.7264
  },
  {
    "name": "森田ケアーズ",
    "address": "東京都台東区駒形１－１２－１０－２０６",
    "lng": 139.79547,
    "lat": 35.70855
  },
  {
    "name": "ブランジーケアサービス",
    "address": "東京都台東区浅草橋２－１６－５",
    "lng": 139.78455,
    "lat": 35.69964
  },
  {
    "name": "有限会社　すずらん介護サービス",
    "address": "東京都台東区花川戸１－１３－７　第２エンゼルコーポ１階",
    "lng": 139.79996,
    "lat": 35.71346
  },
  {
    "name": "ヘルパーステーションてぃーだ(太陽)",
    "address": "東京都台東区橋場１－３４－７",
    "lng": 139.80678,
    "lat": 35.72576
  },
  {
    "name": "トキホームヘルプステイション台東",
    "address": "東京都台東区日本堤２－３１－６池田ビル１階",
    "lng": 139.79716,
    "lat": 35.72878
  },
  {
    "name": "ヘルパーステーションハーモニー",
    "address": "東京都台東区日本堤１－３１－１",
    "lng": 139.79713,
    "lat": 35.72588
  },
  {
    "name": "ラックすみだ",
    "address": "東京都墨田区京島１－４７－１７　２Ｆ",
    "lng": 139.82175,
    "lat": 35.71839
  },
  {
    "name": "株式会社　東京介護サービス",
    "address": "東京都墨田区押上３－４３－４",
    "lng": 139.81996,
    "lat": 35.71097
  },
  {
    "name": "本所介護サービス",
    "address": "東京都墨田区文花３－１４－４ＫＳビル２階",
    "lng": 139.82599,
    "lat": 35.71209
  },
  {
    "name": "労協センター事業団　パル墨田",
    "address": "東京都墨田区向島３丁目３番１号チューブマンション２階",
    "lng": 139.8078,
    "lat": 35.71399
  },
  {
    "name": "墨田ケアーズ",
    "address": "東京都墨田区両国２－６－１０－１０１",
    "lng": 139.79179,
    "lat": 35.69275
  },
  {
    "name": "ニチイケアセンターおしあげ",
    "address": "東京都墨田区太平３－１９－５",
    "lng": 139.81339,
    "lat": 35.70256
  },
  {
    "name": "みどりヘルパーステーション",
    "address": "東京都墨田区緑二丁目５番１２号",
    "lng": 139.80118,
    "lat": 35.69292
  },
  {
    "name": "有限会社　日本ＧＭＤ",
    "address": "東京都墨田区菊川３－９－１　菊川ガーデンハウス１０３",
    "lng": 139.80756,
    "lat": 35.68823
  },
  {
    "name": "労協センター事業団　あゆみケアサービス",
    "address": "東京都墨田区墨田五丁目４３番９号",
    "lng": 139.81914,
    "lat": 35.73397
  },
  {
    "name": "さくら介護サービス",
    "address": "東京都墨田区向島４－１－１",
    "lng": 139.81053,
    "lat": 35.71589
  },
  {
    "name": "なのはな福祉サービス曳舟訪問介護事業所",
    "address": "東京都墨田区東向島２－４６－１１",
    "lng": 139.81859,
    "lat": 35.71992
  },
  {
    "name": "あおばヘルパーステーション",
    "address": "東京都墨田区京島１－１１－６ＪＢパレス",
    "lng": 139.81757,
    "lat": 35.71528
  },
  {
    "name": "有限会社　ケイズフォレスト",
    "address": "東京都墨田区両国２－８－８上田ビル２階",
    "lng": 139.79167,
    "lat": 35.69337
  },
  {
    "name": "有限会社　ほほえみ介護サービス",
    "address": "東京都墨田区業平２－８－６-１０１",
    "lng": 139.8123,
    "lat": 35.70731
  },
  {
    "name": "ジャスト・ケアサービス",
    "address": "東京都墨田区東向島三丁目３６番３号",
    "lng": 139.81656,
    "lat": 35.72113
  },
  {
    "name": "ケア２１墨田",
    "address": "東京都墨田区八広１－７－３０",
    "lng": 139.82236,
    "lat": 35.72169
  },
  {
    "name": "ケアサービス　ひろば",
    "address": "東京都墨田区押上二丁目３０番１６号",
    "lng": 139.81487,
    "lat": 35.71463
  },
  {
    "name": "ヘルパーステーション　和翔苑",
    "address": "東京都墨田区八広六丁目５５番１７号",
    "lng": 139.83116,
    "lat": 35.72396
  },
  {
    "name": "ファミリーケアネット",
    "address": "東京都墨田区東駒形４－１１－３",
    "lng": 139.80675,
    "lat": 35.7063
  },
  {
    "name": "なのはな福祉サービス大正通り　訪問介護事業所",
    "address": "東京都墨田区東向島４－４２－４",
    "lng": 139.81876,
    "lat": 35.72688
  },
  {
    "name": "ハローケア",
    "address": "東京都墨田区文花３－２４－１４",
    "lng": 139.82814,
    "lat": 35.71176
  },
  {
    "name": "テルウェル東日本　墨田介護センタ",
    "address": "東京都墨田区墨田４－１０－６　メゾンノースⅡ１階",
    "lng": 139.82101,
    "lat": 35.73236
  },
  {
    "name": "アースサポート墨田",
    "address": "東京都墨田区東向島三丁目３６番８号",
    "lng": 139.81656,
    "lat": 35.72113
  },
  {
    "name": "ニチイケアセンター墨田",
    "address": "東京都墨田区東向島６－３２－３宮川ビル１階",
    "lng": 139.82071,
    "lat": 35.72444
  },
  {
    "name": "有限会社　ティーワイプランニング",
    "address": "東京都墨田区向島５－３４－６ＭＳビル１Ｆ",
    "lng": 139.81133,
    "lat": 35.71729
  },
  {
    "name": "櫻川ヘルパーステーション",
    "address": "東京都墨田区堤通１－９－８",
    "lng": 139.81139,
    "lat": 35.72465
  },
  {
    "name": "らいふ十人会",
    "address": "東京都墨田区緑４－５－１０",
    "lng": 139.80626,
    "lat": 35.69319
  },
  {
    "name": "ケアステーション　ひまわり",
    "address": "東京都台東区根岸５－２４－７野中第三ビル３０１",
    "lng": 139.79187,
    "lat": 35.73083
  },
  {
    "name": "有限会社　サン介護センター",
    "address": "東京都江東区東砂１－６－５",
    "lng": 139.84055,
    "lat": 35.68125
  },
  {
    "name": "有限会社　ケア・けんこう",
    "address": "東京都江東区北砂６－１９－３",
    "lng": 139.83856,
    "lat": 35.68521
  },
  {
    "name": "あそかライフサービス株式会社",
    "address": "東京都江東区住吉１－１６－１３富士工第２ビル３階",
    "lng": 139.81277,
    "lat": 35.68925
  },
  {
    "name": "株式会社　アンシンケアサービス",
    "address": "東京都江東区東陽五丁目２６番１５号",
    "lng": 139.81448,
    "lat": 35.67107
  },
  {
    "name": "フォービスライフ江東",
    "address": "東京都江東区亀戸６－２５－１",
    "lng": 139.826,
    "lat": 35.69578
  },
  {
    "name": "江東ヘルパーステーション",
    "address": "東京都江東区南砂２－３７－１０－４０７",
    "lng": 139.8255,
    "lat": 35.67119
  },
  {
    "name": "ニチイケアセンター門前仲町",
    "address": "東京都江東区牡丹３－１５－１　Ｍ・Ｉビル２階",
    "lng": 139.80034,
    "lat": 35.66901
  },
  {
    "name": "城東介護センタータカヤマ",
    "address": "東京都江東区北砂３－２３－９",
    "lng": 139.8304,
    "lat": 35.68114
  },
  {
    "name": "さわやか介護センター",
    "address": "東京都江東区森下３－１０－２２広瀬ビル１０２",
    "lng": 139.80188,
    "lat": 35.68619
  },
  {
    "name": "ニチイケアセンター大島",
    "address": "東京都江東区大島５－１０－１０　セントラルプラザ大島４０４",
    "lng": 139.83414,
    "lat": 35.68932
  },
  {
    "name": "株式会社　コウベ",
    "address": "東京都江東区南砂２丁目１２番１３号",
    "lng": 139.82083,
    "lat": 35.67321
  },
  {
    "name": "株式会社　エスパーズ　プランニング",
    "address": "東京都江東区牡丹３－３－６村井ビル１階",
    "lng": 139.79852,
    "lat": 35.66843
  },
  {
    "name": "東京高齢協　江東さざんか",
    "address": "東京都江東区東陽４－５－１１川崎ビル２０５",
    "lng": 139.81895,
    "lat": 35.67032
  },
  {
    "name": "ベストケアセンター江東",
    "address": "東京都江東区南砂３－１３－１０",
    "lng": 139.83334,
    "lat": 35.67126
  },
  {
    "name": "フジナミケア・手と手",
    "address": "東京都江東区東陽５－３０－１６とびたビル５階",
    "lng": 139.81549,
    "lat": 35.67351
  },
  {
    "name": "ブライトケアー",
    "address": "東京都墨田区菊川３－１０－９",
    "lng": 139.80812,
    "lat": 35.68826
  },
  {
    "name": "生活協同組合パルシステム東京ホームヘルプサービス「辰巳陽だまり」",
    "address": "東京都江東区辰巳１－１－３４辰巳ビル３階",
    "lng": 139.80833,
    "lat": 35.64758
  },
  {
    "name": "有限会社　千尋介護センター",
    "address": "東京都江東区常盤一丁目８番４号",
    "lng": 139.79463,
    "lat": 35.68544
  },
  {
    "name": "アイゴケアサービス",
    "address": "東京都江東区豊洲４－２－７サンベルク豊洲２０２",
    "lng": 139.79784,
    "lat": 35.6551
  },
  {
    "name": "なかよし指定訪問介護事業所",
    "address": "東京都江東区福住二丁目４番１号",
    "lng": 139.79437,
    "lat": 35.67775
  },
  {
    "name": "あっとほ～む",
    "address": "東京都江東区千田２２－４丸千ビル２０１号",
    "lng": 139.81636,
    "lat": 35.68032
  },
  {
    "name": "ケア２１　江東",
    "address": "東京都江東区東陽１－１５－５サンテラス木場１階",
    "lng": 139.81047,
    "lat": 35.66795
  },
  {
    "name": "テルウェル東日本　江東介護センタ",
    "address": "東京都江東区亀戸１－３０－１０　メゾン・ド・アマキビル１階",
    "lng": 139.82497,
    "lat": 35.69466
  },
  {
    "name": "ツクイ江東北砂",
    "address": "東京都江東区北砂６－２１－４紅ビル２０１",
    "lng": 139.83797,
    "lat": 35.6843
  },
  {
    "name": "あすなろ介護サービス",
    "address": "東京都江東区住吉２－１－１４芙蓉ビル１０３",
    "lng": 139.81403,
    "lat": 35.68771
  },
  {
    "name": "リキ　ケア",
    "address": "東京都江東区東陽４－８－３",
    "lng": 139.8174,
    "lat": 35.6715
  },
  {
    "name": "ハートケアセンター",
    "address": "東京都江東区北砂５－１４－１４原田ビル２階",
    "lng": 139.83456,
    "lat": 35.68046
  },
  {
    "name": "アイプラン",
    "address": "東京都江東区石島４－４　岩間ビル２０２号室",
    "lng": 139.81142,
    "lat": 35.68015
  },
  {
    "name": "ベネッセ介護センター江東",
    "address": "東京都江東区亀戸７－５－８シティマークス亀戸１階",
    "lng": 139.83356,
    "lat": 35.69569
  },
  {
    "name": "有限会社トータルケアサポート・わかば",
    "address": "東京都江東区大島４－１－２－１０９号",
    "lng": 139.82912,
    "lat": 35.68723
  },
  {
    "name": "株式会社　ハート・トータルサービス",
    "address": "東京都品川区東五反田４－８－７",
    "lng": 139.72649,
    "lat": 35.6298
  },
  {
    "name": "有限会社　ハートフル・ケア・サービス",
    "address": "東京都品川区西大井２-２３-１",
    "lng": 139.72504,
    "lat": 35.5986
  },
  {
    "name": "株式会社　仁済　ヘルパーステーション品川",
    "address": "東京都品川区大井１－３６－１－１階",
    "lng": 139.73126,
    "lat": 35.60482
  },
  {
    "name": "恵愛ヘルパーステーション",
    "address": "東京都品川区大井３－１７－８大井本通りビル",
    "lng": 139.73087,
    "lat": 35.60206
  },
  {
    "name": "株式会社ライフケアーサービスセンター",
    "address": "東京都品川区北品川３－３－３東和ビル３階",
    "lng": 139.73907,
    "lat": 35.62114
  },
  {
    "name": "ケアメイト品川訪問介護事業所",
    "address": "東京都品川区西大井２－４－１４",
    "lng": 139.72235,
    "lat": 35.5998
  },
  {
    "name": "株式会社　エムツー・サポート　指定訪問介護事業所",
    "address": "東京都世田谷区深沢１－４１－１１－２Ｆ",
    "lng": 139.66057,
    "lat": 35.61847
  },
  {
    "name": "株式会社　大崎ホームヘルプサービス",
    "address": "東京都品川区南品川四丁目１１番１号　グリーンハイム南品川５０３号室",
    "lng": 139.73717,
    "lat": 35.61264
  },
  {
    "name": "株式会社ゆたか在宅福祉サービス指定訪問介護事業所",
    "address": "東京都品川区中延６－５－２０",
    "lng": 139.71118,
    "lat": 35.60219
  },
  {
    "name": "ニチイケアセンター大井町",
    "address": "東京都品川区東大井５－７－１０クレスト・ワン４Ｆ",
    "lng": 139.73778,
    "lat": 35.6072
  },
  {
    "name": "ヘルパーステーションすずらん・ゆたか",
    "address": "東京都品川区豊町５－２－２０",
    "lng": 139.71873,
    "lat": 35.60651
  },
  {
    "name": "品川区ホームヘルパーステーション大崎",
    "address": "東京都品川区西五反田５－６－４３　フォレストコート１Ｆ",
    "lng": 139.71558,
    "lat": 35.62434
  },
  {
    "name": "さくら会ヘルパーステーション",
    "address": "東京都品川区南大井５－１９－１社会福祉法人　さくら会　南大井高齢者保健複合施設",
    "lng": 139.73389,
    "lat": 35.59467
  },
  {
    "name": "ライフホームヘルプサービス",
    "address": "東京都品川区東品川２－２－２４天王洲セントラルタワー１８階",
    "lng": 139.74919,
    "lat": 35.62175
  },
  {
    "name": "品川区ヘルパーステーション西大井",
    "address": "東京都品川区西大井二丁目４番４号",
    "lng": 139.72235,
    "lat": 35.5998
  },
  {
    "name": "品川区ヘルパーステーション大原",
    "address": "東京都品川区豊町６－２５－１３－１階",
    "lng": 139.71368,
    "lat": 35.60373
  },
  {
    "name": "生活協同組合パルシステム東京ホームヘルプサービス「八潮陽だまり」",
    "address": "東京都品川区八潮５－２－２八潮ビル２Ｆ",
    "lng": 139.75323,
    "lat": 35.60381
  },
  {
    "name": "品川区ヘルパーステーション東品川第二",
    "address": "東京都品川区東品川３－２７－２５オフィスイン品川３階",
    "lng": 139.74667,
    "lat": 35.61182
  },
  {
    "name": "ヒューマンヘルパー城南",
    "address": "東京都品川区西五反田５－２９－１",
    "lng": 139.71259,
    "lat": 35.62276
  },
  {
    "name": "品川区ヘルパーステーション東品川",
    "address": "東京都品川区東品川三丁目１番５号",
    "lng": 139.7466,
    "lat": 35.61698
  },
  {
    "name": "西五反田ホームヘルパーステーション",
    "address": "東京都品川区西五反田三丁目６番６号",
    "lng": 139.71785,
    "lat": 35.62768
  },
  {
    "name": "ケア２１品川",
    "address": "東京都品川区南大井５－１７－７中村ビル１階",
    "lng": 139.73306,
    "lat": 35.59529
  },
  {
    "name": "トキワ介護サービス",
    "address": "東京都品川区中延四丁目７番２０号",
    "lng": 139.71297,
    "lat": 35.60448
  },
  {
    "name": "ヘルパーステーション・湯～亀",
    "address": "東京都品川区旗の台４－５－１７",
    "lng": 139.70573,
    "lat": 35.60268
  },
  {
    "name": "株式会社　仁済ヘルパーステーション南大井",
    "address": "東京都品川区南大井４－１－１戸張ビル１Ｆ",
    "lng": 139.7359,
    "lat": 35.59948
  },
  {
    "name": "ケアステーション桃の木",
    "address": "東京都大田区上池台１－１７－２－１０３",
    "lng": 139.69659,
    "lat": 35.60197
  },
  {
    "name": "キララ介護サービス",
    "address": "東京都品川区平塚１－１３－８グリーンライフ山崎２０１",
    "lng": 139.71556,
    "lat": 35.6132
  },
  {
    "name": "どりいみんぐヘルパーステーション",
    "address": "東京都品川区大崎２－６－１２　エクタスビル１Ｆ",
    "lng": 139.72443,
    "lat": 35.61752
  },
  {
    "name": "テルウェル東日本　南品川介護センタ",
    "address": "東京都品川区大井３－４－１加瀬ビル１４８　３階",
    "lng": 139.73196,
    "lat": 35.60341
  },
  {
    "name": "株式会社　サンライフ目黒　指定訪問介護事業所",
    "address": "東京都目黒区目黒１－４－８ニュー目黒ビル７Ｆ",
    "lng": 139.71381,
    "lat": 35.6344
  },
  {
    "name": "ヘルパーステーション　目黒医療生協",
    "address": "東京都目黒区目黒本町６－６－８",
    "lng": 139.69679,
    "lat": 35.61866
  },
  {
    "name": "ニチイケアセンター自由ヶ丘",
    "address": "東京都目黒区自由が丘２－１０－１６栗山ビル６階",
    "lng": 139.66745,
    "lat": 35.60843
  },
  {
    "name": "ニチイケアセンター中目黒",
    "address": "東京都目黒区東山１－４－４　目黒東山ビル１Ｆ",
    "lng": 139.69489,
    "lat": 35.64693
  },
  {
    "name": "訪問介護　ナイスケア",
    "address": "東京都目黒区大岡山１－５－１５ＮＣビル１Ｆ",
    "lng": 139.68425,
    "lat": 35.6104
  },
  {
    "name": "ひまわり訪問介護入浴センター",
    "address": "東京都目黒区目黒三丁目１４番３号",
    "lng": 139.70549,
    "lat": 35.63283
  },
  {
    "name": "目黒支援センター",
    "address": "東京都目黒区洗足二丁目２５番１６号　かたばみビル　１階",
    "lng": 139.69446,
    "lat": 35.6099
  },
  {
    "name": "清徳会ホームヘルプステーション",
    "address": "東京都目黒区目黒本町４－２－１",
    "lng": 139.69768,
    "lat": 35.62283
  },
  {
    "name": "ジャパンスタッフ株式会社",
    "address": "東京都目黒区鷹番三丁目１番３号　リエール鷹番４０３号",
    "lng": 139.68588,
    "lat": 35.62964
  },
  {
    "name": "やさしい手自由が丘訪問介護事業所",
    "address": "東京都目黒区自由が丘２－１１－１０　パルシィード４階",
    "lng": 139.66725,
    "lat": 35.60749
  },
  {
    "name": "ホクトケアサポート",
    "address": "東京都目黒区鷹番１－９－９　エムジーハイツ１０１号",
    "lng": 139.68756,
    "lat": 35.62567
  },
  {
    "name": "ツクイ目黒",
    "address": "東京都目黒区鷹番３－９－１１　薩川ビル１Ｆ",
    "lng": 139.68582,
    "lat": 35.63067
  },
  {
    "name": "アースサポート目黒",
    "address": "東京都目黒区下目黒二丁目２１番１６号",
    "lng": 139.70927,
    "lat": 35.63241
  },
  {
    "name": "有限会社　生羅",
    "address": "東京都目黒区中央町２－１６－３ミネタウンハウスＢ棟",
    "lng": 139.68915,
    "lat": 35.63277
  },
  {
    "name": "えるはあと　ケアセンター",
    "address": "東京都目黒区中央町１－２－３高木ビル１階",
    "lng": 139.6938,
    "lat": 35.6301
  },
  {
    "name": "ホームヘルプサービス　ソラスト大岡山",
    "address": "東京都目黒区大岡山１－３－４ドリームマンション１０１号室",
    "lng": 139.68399,
    "lat": 35.61224
  },
  {
    "name": "不動前ヘルパーステーション",
    "address": "東京都目黒区下目黒３－１８－７　スカイコート２０１",
    "lng": 139.70869,
    "lat": 35.62758
  },
  {
    "name": "有限会社　目黒ケアセンター",
    "address": "東京都目黒区目黒本町６－１７－３",
    "lng": 139.6945,
    "lat": 35.61825
  },
  {
    "name": "ヘルパーステーション　目黒医療生協　北部",
    "address": "東京都目黒区上目黒４－４－２１",
    "lng": 139.69232,
    "lat": 35.6414
  },
  {
    "name": "(有)しんあいケアセンター　中目黒",
    "address": "東京都目黒区上目黒２－４９－１４",
    "lng": 139.69403,
    "lat": 35.64182
  },
  {
    "name": "ベアタケア",
    "address": "東京都目黒区平町一丁目２６番地３号アーバンハイム１０１号",
    "lng": 139.6772,
    "lat": 35.61742
  },
  {
    "name": "日介センター目黒",
    "address": "東京都目黒区祐天寺２－１６－１　倉方ビル１０３",
    "lng": 139.69122,
    "lat": 35.63623
  },
  {
    "name": "愛隣会訪問介護ステーション",
    "address": "東京都目黒区大橋２－１９－３８",
    "lng": 139.68199,
    "lat": 35.65539
  },
  {
    "name": "ケアメイト大田訪問介護事業所",
    "address": "東京都大田区池上三丁目３１番１１号　フナダビル２Ａ",
    "lng": 139.70293,
    "lat": 35.57389
  },
  {
    "name": "株式会社　仁済　ヘルパーステーション大田",
    "address": "東京都大田区雪谷大塚町１－１４アウル雪谷２階",
    "lng": 139.68109,
    "lat": 35.59422
  },
  {
    "name": "ニチイケアセンター池上",
    "address": "東京都大田区池上６－８－７　カレリアビル２階",
    "lng": 139.70256,
    "lat": 35.5716
  },
  {
    "name": "ホームケア井上",
    "address": "東京都大田区鵜の木１－１６－２４ＨＩビル",
    "lng": 139.68184,
    "lat": 35.57516
  },
  {
    "name": "訪問介護　エンゼル",
    "address": "東京都大田区東馬込２－１９－１１日邦ビル４０２",
    "lng": 139.71568,
    "lat": 35.59357
  },
  {
    "name": "芙蓉ケアサービス",
    "address": "東京都大田区大森北２－１２－８",
    "lng": 139.73488,
    "lat": 35.58463
  },
  {
    "name": "ヘルパーステーション　すずらん",
    "address": "東京都大田区大森中２－１３－２メゾンニトウ　Ｂ館１０５号",
    "lng": 139.7348,
    "lat": 35.56824
  },
  {
    "name": "やさしい手　大田　訪問介護事業所",
    "address": "東京都大田区西蒲田５－２７－１３ＫＳビル５階",
    "lng": 139.7135,
    "lat": 35.56446
  },
  {
    "name": "蒲田訪問介護ステーション",
    "address": "東京都大田区蒲田４－２３－１７－２０４",
    "lng": 139.72173,
    "lat": 35.5605
  },
  {
    "name": "株式会社　エーナ　介護センター",
    "address": "東京都大田区東矢口二丁目１８番１７号",
    "lng": 139.70189,
    "lat": 35.56362
  },
  {
    "name": "ニチイケアセンター蒲田",
    "address": "東京都大田区西蒲田７－４８－１４　Ｋ・Ｔ・Ｙビル４階",
    "lng": 139.71375,
    "lat": 35.56252
  },
  {
    "name": "株式会社　シーン　ケア・シーン蒲田",
    "address": "東京都大田区南蒲田３－１－５",
    "lng": 139.72621,
    "lat": 35.55533
  },
  {
    "name": "日介センター蒲田",
    "address": "東京都大田区多摩川１－１－１０ライオンズマンション森田多摩川２０１",
    "lng": 139.70273,
    "lat": 35.56181
  },
  {
    "name": "株式会社　ユニオンケア",
    "address": "東京都大田区大森北６－１３－１",
    "lng": 139.7345,
    "lat": 35.57906
  },
  {
    "name": "特定非営利活動法人　たすけあい大田はせさんずヘルパーステーション",
    "address": "東京都大田区池上４－２８－３",
    "lng": 139.70451,
    "lat": 35.57418
  },
  {
    "name": "好日苑ヘルパーステーション上池台",
    "address": "東京都大田区上池台５－７－１",
    "lng": 139.70232,
    "lat": 35.59427
  },
  {
    "name": "企業組合　ケアフォーラム田園調布",
    "address": "東京都大田区田園調布３－１－３",
    "lng": 139.66672,
    "lat": 35.59781
  },
  {
    "name": "ニチイケアセンター大森",
    "address": "東京都大田区大森北１－３３－４湯建大森北ビルⅡ４階",
    "lng": 139.72684,
    "lat": 35.5853
  },
  {
    "name": "株式会社　大崎ホームヘルプサービス　大田事業所",
    "address": "東京都大田区蒲田３－１６－１２　栄工舎４０１",
    "lng": 139.72325,
    "lat": 35.56303
  },
  {
    "name": "有限会社　あんていけあ",
    "address": "東京都目黒区平町１－２１－２１－３０２",
    "lng": 139.67763,
    "lat": 35.61873
  },
  {
    "name": "アクセス訪問介護ステーション",
    "address": "東京都大田区蒲田本町２－２－１　第８坂入グリーンパークビル３階",
    "lng": 139.71938,
    "lat": 35.55805
  },
  {
    "name": "ヘルパーステーション池上長寿園　南蒲田",
    "address": "東京都大田区南蒲田２－９－８",
    "lng": 139.72459,
    "lat": 35.55636
  },
  {
    "name": "特定非営利活動法人　サポートぱんぷきん",
    "address": "東京都大田区大森西２－９－７　第２浅間マンション１０８号",
    "lng": 139.73393,
    "lat": 35.57694
  },
  {
    "name": "有限会社　ベスト・フレンド　ホームヘルプサービス",
    "address": "東京都大田区中央七丁目１７番１９号　ファミーユ・パレ１階",
    "lng": 139.71664,
    "lat": 35.57473
  },
  {
    "name": "有限会社　ひまわり介護サービス",
    "address": "東京都大田区大森北３－５－４イルマンヒシモマンション２０１",
    "lng": 139.73325,
    "lat": 35.5842
  },
  {
    "name": "（株）アンティ・ケア",
    "address": "東京都大田区南千束１－３４－５反町ビル２０１",
    "lng": 139.69246,
    "lat": 35.60114
  },
  {
    "name": "おおきなき大田",
    "address": "東京都大田区南六郷２－２０－２",
    "lng": 139.72087,
    "lat": 35.54647
  },
  {
    "name": "ノーマライズ株式会社",
    "address": "東京都大田区池上４－１６－８",
    "lng": 139.70576,
    "lat": 35.57355
  },
  {
    "name": "有限会社　マリス・ステラ",
    "address": "東京都大田区北千束二丁目２０番７号",
    "lng": 139.69565,
    "lat": 35.60577
  },
  {
    "name": "株式会社　ケアサービス　訪問介護　蒲田",
    "address": "東京都大田区新蒲田３－１５－７",
    "lng": 139.70695,
    "lat": 35.55675
  },
  {
    "name": "訪問介護ナイスケア大田",
    "address": "東京都大田区北千束三丁目１７番１７号",
    "lng": 139.6875,
    "lat": 35.60618
  },
  {
    "name": "あおぞら",
    "address": "東京都大田区蒲田一丁目１５番１３号　シャトー蒲田１－１Ｆ",
    "lng": 139.72057,
    "lat": 35.56521
  },
  {
    "name": "ツクイ大田蒲田",
    "address": "東京都大田区蒲田５－４６－１０金親ビル２０１",
    "lng": 139.71593,
    "lat": 35.56017
  },
  {
    "name": "スマイルケア",
    "address": "東京都大田区東雪谷２－１７－１２",
    "lng": 139.68596,
    "lat": 35.59425
  },
  {
    "name": "ハート",
    "address": "東京都大田区羽田４－２１－１１タカツホームズ１Ｆ",
    "lng": 139.7468,
    "lat": 35.54846
  },
  {
    "name": "医療法人社団　仁平会　平和島デイサービスセンター",
    "address": "東京都大田区大森北６－１７－１３　３階",
    "lng": 139.73286,
    "lat": 35.57927
  },
  {
    "name": "港ケア・メイト",
    "address": "東京都港区三田２－１０－５エル・アルカサル三田７０１",
    "lng": 139.74461,
    "lat": 35.6507
  },
  {
    "name": "ケアズファクトリー蒲田",
    "address": "東京都大田区新蒲田２－１－３　６階",
    "lng": 139.7083,
    "lat": 35.55979
  },
  {
    "name": "萩中介護ステーション",
    "address": "東京都大田区萩中２－１５－１８雨甲斐ビル１０１号室",
    "lng": 139.73064,
    "lat": 35.5501
  },
  {
    "name": "やさか　訪問介護事業所",
    "address": "東京都大田区西糀谷４－１６－２吉澤ビル２－１０１",
    "lng": 139.73178,
    "lat": 35.55503
  },
  {
    "name": "株式会社ライフケアーサービスセンター大田事業所",
    "address": "東京都大田区西糀谷２－３１－１３グレースコートＫＭ１０６",
    "lng": 139.7341,
    "lat": 35.55732
  },
  {
    "name": "介護ケアー　たんぽぽ",
    "address": "東京都大田区鵜の木二丁目３番６号",
    "lng": 139.68079,
    "lat": 35.57568
  },
  {
    "name": "介護サポート秋桜",
    "address": "東京都大田区新蒲田三丁目２３番１７号",
    "lng": 139.70496,
    "lat": 35.55553
  },
  {
    "name": "有限会社　ひとみケアサービス",
    "address": "東京都大田区西糀谷３丁目１４番２２号杉浦ハウス１０１",
    "lng": 139.73384,
    "lat": 35.55463
  },
  {
    "name": "ワークスタッフ　鵜の木",
    "address": "東京都大田区鵜の木２－１７－３ライオンズマンション鵜の木１階",
    "lng": 139.67914,
    "lat": 35.57613
  },
  {
    "name": "吉野ヘルパーステーション",
    "address": "東京都大田区東矢口１－１４－２１",
    "lng": 139.70306,
    "lat": 35.56495
  },
  {
    "name": "ライフサポート大田ケアステーション",
    "address": "東京都大田区蒲田３－３－２３杉山ビル１階",
    "lng": 139.72203,
    "lat": 35.56366
  },
  {
    "name": "シンクハーツ・ケア",
    "address": "東京都大田区大森北３－２４－２５－１０２",
    "lng": 139.73019,
    "lat": 35.58302
  },
  {
    "name": "レモン　ホームケアサービス",
    "address": "東京都大田区南久が原２－３２－１４庄野ビル２階",
    "lng": 139.68481,
    "lat": 35.57449
  },
  {
    "name": "グラニー雪ヶ谷ケアステーション",
    "address": "東京都大田区東雪谷３－１０－９",
    "lng": 139.69043,
    "lat": 35.59285
  },
  {
    "name": "ヘルパーステーション　すずらん馬込",
    "address": "東京都大田区北馬込１－１３－２",
    "lng": 139.70435,
    "lat": 35.60107
  },
  {
    "name": "有限会社　スマイル・サービスセンター",
    "address": "東京都大田区南蒲田１－７－２０",
    "lng": 139.72679,
    "lat": 35.55946
  },
  {
    "name": "アスナロ馬込介護ステーション",
    "address": "東京都大田区西馬込１－４－２馬込坂ハウス３０１",
    "lng": 139.70784,
    "lat": 35.58998
  },
  {
    "name": "ケア２１大田",
    "address": "東京都大田区蒲田４－４１－１大熊ビル１階",
    "lng": 139.71899,
    "lat": 35.55954
  },
  {
    "name": "月のうさぎ",
    "address": "東京都大田区南久が原２－１２－２",
    "lng": 139.68594,
    "lat": 35.57843
  },
  {
    "name": "アスナロ介護ステーション蒲田事業所",
    "address": "東京都大田区蒲田四丁目４３番１２号クライム山本２０２号室",
    "lng": 139.72011,
    "lat": 35.55869
  },
  {
    "name": "さくら・介護ステーションアイズ羽田",
    "address": "東京都大田区東糀谷２－１４－２１アーバンライフ大鳥居３０６号室",
    "lng": 139.74152,
    "lat": 35.55398
  },
  {
    "name": "楽養ケアセンター株式会社",
    "address": "東京都大田区池上４丁目３０番１号　第９朝日ビル２０２",
    "lng": 139.70531,
    "lat": 35.57342
  },
  {
    "name": "フルケアサービス",
    "address": "東京都大田区大森南２－６－５",
    "lng": 139.74612,
    "lat": 35.56353
  },
  {
    "name": "ニチイケアセンター　羽田",
    "address": "東京都大田区西糀谷３－４１－３長藤ビル４階",
    "lng": 139.73674,
    "lat": 35.55275
  },
  {
    "name": "特定非営利活動法人ビオラたすけあいワーカーズＡＣＴ大田",
    "address": "東京都大田区千鳥一丁目25番12号　大山ビル２階",
    "lng": 139.69388,
    "lat": 35.57184
  },
  {
    "name": "あすか桜坂",
    "address": "東京都大田区田園調布本町４６－２クレセント田園調布２階",
    "lng": 139.67561,
    "lat": 35.5873
  },
  {
    "name": "うらら訪問介護サービス",
    "address": "東京都大田区南馬込５－３１－４彩幸ハイム１階",
    "lng": 139.70705,
    "lat": 35.58698
  },
  {
    "name": "ニチイケアセンター成城",
    "address": "東京都世田谷区成城２－４０－６三井生命成城ビル４F",
    "lng": 139.59837,
    "lat": 35.63962
  },
  {
    "name": "株式会社　山本サービス",
    "address": "東京都世田谷区船橋一丁目９番１６号",
    "lng": 139.62323,
    "lat": 35.64769
  },
  {
    "name": "訪問介護ナイスケア　世田谷",
    "address": "東京都世田谷区駒沢２－８－６ゆうコート１０１",
    "lng": 139.65927,
    "lat": 35.63358
  },
  {
    "name": "株式会社リバイス",
    "address": "東京都世田谷区松原５－２６－１",
    "lng": 139.6537,
    "lat": 35.66223
  },
  {
    "name": "株式会社　野沢トータルケア",
    "address": "東京都世田谷区野沢２－２４－２",
    "lng": 139.66833,
    "lat": 35.63406
  },
  {
    "name": "ニチイケアセンター烏山",
    "address": "東京都世田谷区北烏山６－１－１６",
    "lng": 139.5997,
    "lat": 35.67261
  },
  {
    "name": "ヘルパーサービス和知",
    "address": "東京都世田谷区代沢５－７－３",
    "lng": 139.66795,
    "lat": 35.6556
  },
  {
    "name": "株式会社　太子ホームヘルパーケア・サービス",
    "address": "東京都世田谷区若林１－１－２７　藤和若林コープ１０１",
    "lng": 139.66522,
    "lat": 35.64394
  },
  {
    "name": "有限会社　玉川ケアサービス",
    "address": "東京都世田谷区玉川台１－１３－１４用賀武井ビル３０１、３０２号",
    "lng": 139.63335,
    "lat": 35.62468
  },
  {
    "name": "ツクイ世田谷明大前",
    "address": "東京都世田谷区松原１－３９－１７レインボー松原１階",
    "lng": 139.65166,
    "lat": 35.66984
  },
  {
    "name": "株式会社　アップル　ウェル　フェアー",
    "address": "東京都世田谷区南烏山６－４－１８　カルスハイツ３Ｆ",
    "lng": 139.59991,
    "lat": 35.6688
  },
  {
    "name": "有限会社　石川ケアサービス",
    "address": "東京都世田谷区上北沢５－３５－１３",
    "lng": 139.61528,
    "lat": 35.67321
  },
  {
    "name": "成城訪問介護ステーション",
    "address": "東京都世田谷区成城６－１３－１７",
    "lng": 139.59991,
    "lat": 35.64156
  },
  {
    "name": "ほほえみの木々",
    "address": "東京都世田谷区代沢４－２８－１２ＫＳハイム１階",
    "lng": 139.66763,
    "lat": 35.65342
  },
  {
    "name": "透光介護支援センター",
    "address": "東京都世田谷区世田谷１－３５－１８",
    "lng": 139.64935,
    "lat": 35.64029
  },
  {
    "name": "世田谷ホームヘルプサービス",
    "address": "東京都世田谷区世田谷１－２３－２　ＤＳＩビル１階",
    "lng": 139.64774,
    "lat": 35.64219
  },
  {
    "name": "おおきなき世田谷",
    "address": "東京都世田谷区三軒茶屋１－３５－３　フルヤビル２階",
    "lng": 139.67249,
    "lat": 35.6425
  },
  {
    "name": "やさしい手笹塚訪問介護事業所",
    "address": "東京都渋谷区笹塚１－６２－８キャッスルマンション４０３号",
    "lng": 139.66269,
    "lat": 35.67268
  },
  {
    "name": "ニチイケアセンター北沢",
    "address": "東京都世田谷区大原１－２３－１５三京ビル３Ｆ",
    "lng": 139.66162,
    "lat": 35.66737
  },
  {
    "name": "ニチイケアセンター三軒茶屋",
    "address": "東京都世田谷区三宿１－１４－２Ｏｇｕｒａ　ＢＬＤＧ　３Ｆ",
    "lng": 139.67592,
    "lat": 35.6469
  },
  {
    "name": "ケアパートナー奥沢訪問介護事業所",
    "address": "東京都世田谷区奥沢３－３０－８メーゾン春木１階",
    "lng": 139.67203,
    "lat": 35.60196
  },
  {
    "name": "ケアマーク世田谷",
    "address": "東京都世田谷区三軒茶屋一丁目２９番８号",
    "lng": 139.66978,
    "lat": 35.64107
  },
  {
    "name": "やさしい手三軒茶屋訪問介護事業所",
    "address": "東京都世田谷区太子堂１－１２－３９三軒茶屋ビル２Ｆ",
    "lng": 139.67386,
    "lat": 35.64455
  },
  {
    "name": "有限会社　ケアグループ合歓木",
    "address": "東京都世田谷区桜三丁目７番１６号　田中ビル２階",
    "lng": 139.63824,
    "lat": 35.63993
  },
  {
    "name": "ヘルパーステーション青い鳥",
    "address": "東京都世田谷区奥沢７－１２－２５　２階",
    "lng": 139.66385,
    "lat": 35.60763
  },
  {
    "name": "ヘルパーステーションきたみ",
    "address": "東京都世田谷区喜多見七丁目１２番４号　イズミハイム１０３号",
    "lng": 139.59448,
    "lat": 35.63227
  },
  {
    "name": "ホームヘルプサービス　ソラスト世田谷",
    "address": "東京都世田谷区桜新町２－３１－５東芝桜新町ビル３Ｆ",
    "lng": 139.63901,
    "lat": 35.63349
  },
  {
    "name": "ホームヘルパーステーションきたざわ苑",
    "address": "東京都世田谷区北沢５－２４－１８",
    "lng": 139.67128,
    "lat": 35.67003
  },
  {
    "name": "ホームアンドケアサービスセンター",
    "address": "東京都世田谷区玉川台二丁目３番２０号　第５ＹＮビル４０７号",
    "lng": 139.63133,
    "lat": 35.62288
  },
  {
    "name": "東京高齢協世田谷訪問介護青い空",
    "address": "東京都世田谷区弦巻一丁目３７番１０号",
    "lng": 139.64908,
    "lat": 35.6397
  },
  {
    "name": "おおきなき明大前",
    "address": "東京都世田谷区松原２－３８－９明大前グランドハイツ１Ｆ",
    "lng": 139.64792,
    "lat": 35.66831
  },
  {
    "name": "愛の羽・経堂",
    "address": "東京都世田谷区経堂２－１８－１５山口ビル",
    "lng": 139.63359,
    "lat": 35.6516
  },
  {
    "name": "有限会社　おひさま",
    "address": "東京都世田谷区深沢５－２８－３",
    "lng": 139.64905,
    "lat": 35.61616
  },
  {
    "name": "等々力の家訪問介護ステーション",
    "address": "東京都世田谷区等々力八丁目２６番１６号",
    "lng": 139.65237,
    "lat": 35.61715
  },
  {
    "name": "やさしい手祖師谷訪問介護事業所",
    "address": "東京都世田谷区祖師谷３－３６－３０",
    "lng": 139.60715,
    "lat": 35.64579
  },
  {
    "name": "在宅ケアサービスもえぎ",
    "address": "東京都世田谷区駒沢２－５３－１２",
    "lng": 139.65887,
    "lat": 35.6362
  },
  {
    "name": "給田　ヘルパーステーション",
    "address": "東京都世田谷区給田五丁目９番５号",
    "lng": 139.58606,
    "lat": 35.67208
  },
  {
    "name": "訪問介護事業所　ケアステーション　連",
    "address": "東京都世田谷区下馬３－２２－１３丸伝ビルⅣ　２Ｆ",
    "lng": 139.6729,
    "lat": 35.63441
  },
  {
    "name": "喜多見ホームヘルパーセンター",
    "address": "東京都世田谷区喜多見七丁目２０番２６号",
    "lng": 139.59595,
    "lat": 35.63247
  },
  {
    "name": "特定非営利活動法人　　向日葵",
    "address": "東京都世田谷区世田谷三丁目１番２５号　フローリッシュ世田谷１階",
    "lng": 139.64938,
    "lat": 35.64297
  },
  {
    "name": "もみの木ケアセンター",
    "address": "東京都世田谷区三宿２－１６－１４パール世田谷Ｂ１",
    "lng": 139.67473,
    "lat": 35.65187
  },
  {
    "name": "株式会社　あかね",
    "address": "東京都世田谷区三軒茶屋２－１１－２０サンタワーズＤ棟８階",
    "lng": 139.66916,
    "lat": 35.64173
  },
  {
    "name": "ケアセンター　やわら",
    "address": "東京都世田谷区代田６－３２－１",
    "lng": 139.66296,
    "lat": 35.66333
  },
  {
    "name": "ケアメイト桜新町訪問介護事業所",
    "address": "東京都世田谷区桜新町２－２０－１６ＧＡＴＯ　Ｄ．Ｍ桜新町１Ｆ",
    "lng": 139.64104,
    "lat": 35.63231
  },
  {
    "name": "ＮＰＯ・世田谷ゆりの木",
    "address": "東京都世田谷区船橋一丁目１番２号　山崎ビル２０１号室",
    "lng": 139.62413,
    "lat": 35.64746
  },
  {
    "name": "愛の羽・世田谷西",
    "address": "東京都世田谷区砧６－１９－４",
    "lng": 139.61008,
    "lat": 35.64212
  },
  {
    "name": "烏山　ホームヘルプサービス",
    "address": "東京都世田谷区粕谷２－２３－１",
    "lng": 139.60916,
    "lat": 35.66574
  },
  {
    "name": "さくらケア上町訪問介護事業所",
    "address": "東京都世田谷区世田谷１－２２－１２　　グランデ世田谷２階",
    "lng": 139.64748,
    "lat": 35.64275
  },
  {
    "name": "ホームヘルプサービス　ソラスト烏山",
    "address": "東京都世田谷区南烏山６－６－５安藤ビル１階",
    "lng": 139.59886,
    "lat": 35.66752
  },
  {
    "name": "真気ケアサービス",
    "address": "東京都世田谷区経堂５－２０－６",
    "lng": 139.62947,
    "lat": 35.64738
  },
  {
    "name": "株式会社　秋桜ケアサービス",
    "address": "東京都世田谷区深沢７－２２－１２　２Ｆ",
    "lng": 139.64565,
    "lat": 35.62217
  },
  {
    "name": "やさしい手用賀訪問介護事業所",
    "address": "東京都世田谷区用賀２－３１－７　イイダアネックスⅠ　２階",
    "lng": 139.63538,
    "lat": 35.62472
  },
  {
    "name": "やさしい手下高井戸訪問介護事業所",
    "address": "東京都世田谷区松原３－３０－１５シャイロビル２Ｆ",
    "lng": 139.64201,
    "lat": 35.66642
  },
  {
    "name": "ＮＰＯ・ほっと介護サービス",
    "address": "東京都世田谷区赤堤１－２６－８赤堤（Ａ）ＨＯＵＳＥＷＥＳＴ Ｂ－１０１号",
    "lng": 139.64055,
    "lat": 35.65462
  },
  {
    "name": "有限会社　介護けやき",
    "address": "東京都世田谷区世田谷四丁目１番１号",
    "lng": 139.65477,
    "lat": 35.64267
  },
  {
    "name": "ケア２１　烏山",
    "address": "東京都世田谷区粕谷３－１５－２メゾネット田中",
    "lng": 139.60507,
    "lat": 35.66027
  },
  {
    "name": "タウンライフケア桜上水",
    "address": "東京都世田谷区桜上水一丁目２０番１２号　シャトレ経堂２０１号",
    "lng": 139.6297,
    "lat": 35.65658
  },
  {
    "name": "有限会社　しんあいケアセンターせたがや",
    "address": "東京都世田谷区世田谷１－１０－１５",
    "lng": 139.6543,
    "lat": 35.64175
  },
  {
    "name": "アースサポート世田谷",
    "address": "東京都世田谷区用賀２－３１－４",
    "lng": 139.63538,
    "lat": 35.62472
  },
  {
    "name": "ライフサポートやすらぎ",
    "address": "東京都世田谷区若林３－１７－１２芳和荘２０１",
    "lng": 139.65508,
    "lat": 35.64244
  },
  {
    "name": "さわやか介護センター",
    "address": "東京都世田谷区八幡山３－１０－１４　てらーるはうす１０１",
    "lng": 139.61874,
    "lat": 35.66464
  },
  {
    "name": "ニチイケアセンター　用賀",
    "address": "東京都世田谷区用賀３－９－１２",
    "lng": 139.63838,
    "lat": 35.62975
  },
  {
    "name": "かいごの里",
    "address": "東京都世田谷区桜３－１８－９クレール世田谷４０１",
    "lng": 139.63492,
    "lat": 35.64016
  },
  {
    "name": "白尾美和ケアサービス",
    "address": "東京都世田谷区代沢三丁目２６番１７号",
    "lng": 139.66931,
    "lat": 35.65691
  },
  {
    "name": "ケアステーション　こころ",
    "address": "東京都世田谷区宇奈根２－１４－２８",
    "lng": 139.59949,
    "lat": 35.6223
  },
  {
    "name": "指定訪問介護事業所きびだんご",
    "address": "東京都世田谷区玉堤１－２０－１９新東京園マンション３０４",
    "lng": 139.65051,
    "lat": 35.596
  },
  {
    "name": "ウェルビーイング成城",
    "address": "東京都世田谷区成城２－４０－８ベルクハイム成城３０３号",
    "lng": 139.59837,
    "lat": 35.63962
  },
  {
    "name": "有限会社ケアー・ホープ",
    "address": "東京都世田谷区砧１－１４－３",
    "lng": 139.61823,
    "lat": 35.63654
  },
  {
    "name": "テルウェル東日本　西世田谷介護センタ",
    "address": "東京都世田谷区祖師谷６－１９－１８塚戸医療館２階",
    "lng": 139.60851,
    "lat": 35.65479
  },
  {
    "name": "ケアステーションたね",
    "address": "東京都世田谷区赤堤５－３２－４共栄荘１０１",
    "lng": 139.63736,
    "lat": 35.66534
  },
  {
    "name": "マリス・ステラ等々力ステーション",
    "address": "東京都世田谷区等々力３－６－１５　ナノックスビル５０３号",
    "lng": 139.64687,
    "lat": 35.60899
  },
  {
    "name": "介護医療センターこじろー丸",
    "address": "東京都世田谷区南烏山４－９－２３コーポあさひ１０２",
    "lng": 139.60213,
    "lat": 35.66929
  },
  {
    "name": "訪問介護サービスさんたも",
    "address": "東京都世田谷区宮坂３－３３－３",
    "lng": 139.6364,
    "lat": 35.65475
  },
  {
    "name": "千山の里ヘルパーステーション",
    "address": "東京都世田谷区南烏山２－３２－２８千山の里１階",
    "lng": 139.60817,
    "lat": 35.66874
  },
  {
    "name": "ヘルパーステーションさくら",
    "address": "東京都世田谷区桜丘４－７－１７",
    "lng": 139.62424,
    "lat": 35.64124
  },
  {
    "name": "サニー・けあサポート",
    "address": "東京都世田谷区喜多見８－１６－１２－１Ｆ",
    "lng": 139.58948,
    "lat": 35.63602
  },
  {
    "name": "等々力ホームヘルプサービス",
    "address": "東京都世田谷区奥沢７－２３－１４－２１１",
    "lng": 139.65866,
    "lat": 35.60618
  },
  {
    "name": "ニチイケアセンター恵比寿",
    "address": "東京都渋谷区広尾５－１９－１１　マリオン広尾ビル２Ｆ",
    "lng": 139.72003,
    "lat": 35.6488
  },
  {
    "name": "アースサポート渋谷",
    "address": "東京都渋谷区本町１－４－１４",
    "lng": 139.68512,
    "lat": 35.68169
  },
  {
    "name": "モテギケアサービス",
    "address": "東京都渋谷区代々木２－２６－１１桑野ビル１－Ａ",
    "lng": 139.69888,
    "lat": 35.68517
  },
  {
    "name": "株式会社　ライフ・トータルサービス",
    "address": "東京都渋谷区西原３－１－５　田口ビル２階",
    "lng": 139.68277,
    "lat": 35.6702
  },
  {
    "name": "株式会社　生活援助会",
    "address": "東京都渋谷区富ケ谷１－９－２３服部ビル２０１",
    "lng": 139.69049,
    "lat": 35.6682
  },
  {
    "name": "パールケア",
    "address": "東京都渋谷区鉢山町３－２７",
    "lng": 139.69894,
    "lat": 35.65226
  },
  {
    "name": "ライフサポート新宿ケアステーション",
    "address": "東京都新宿区新宿５－１－１ローヤルマンションビル３０６",
    "lng": 139.71239,
    "lat": 35.6921
  },
  {
    "name": "笹塚ケア２１",
    "address": "東京都渋谷区笹塚１－４０－７",
    "lng": 139.66235,
    "lat": 35.67162
  },
  {
    "name": "日介センター代々木",
    "address": "東京都渋谷区代々木１－１６－６代々木コパン３階",
    "lng": 139.70064,
    "lat": 35.68088
  },
  {
    "name": "渋谷区社会福祉協議会　ホームヘルパーステーション",
    "address": "東京都渋谷区西原１－４０－１０",
    "lng": 139.68221,
    "lat": 35.67532
  },
  {
    "name": "ホームヘルプサービス　ソラスト渋谷",
    "address": "東京都渋谷区幡ヶ谷１－１７－１５幡ヶ谷オフィスハウス　２階",
    "lng": 139.67238,
    "lat": 35.67474
  },
  {
    "name": "ポピンズシルバーサービス",
    "address": "東京都渋谷区広尾５－６－６広尾プラザ５Ｆ",
    "lng": 139.72209,
    "lat": 35.64996
  },
  {
    "name": "有限会社　コスモスヘルパーステーション",
    "address": "東京都渋谷区桜丘町７－１０桜山ビル１０１",
    "lng": 139.70322,
    "lat": 35.65474
  },
  {
    "name": "ベネッセ介護センター経堂",
    "address": "東京都世田谷区経堂２－１７－２　パティオ経堂１階",
    "lng": 139.63388,
    "lat": 35.65176
  },
  {
    "name": "テルウェル東日本　渋谷介護センタ",
    "address": "東京都渋谷区元代々木町２４－１１フロンティア３Ｆ　Ａ号室",
    "lng": 139.68582,
    "lat": 35.67051
  },
  {
    "name": "ユアーズ",
    "address": "東京都新宿区下落合一丁目１２番２号カーサ中村４０３",
    "lng": 139.69653,
    "lat": 35.71564
  },
  {
    "name": "泰の木有限会社",
    "address": "東京都渋谷区本町五丁目１１番３　４０７号",
    "lng": 139.67784,
    "lat": 35.68501
  },
  {
    "name": "医療法人社団　松和会　望星西新宿診療所",
    "address": "東京都新宿区西新宿３－１２－１２",
    "lng": 139.68842,
    "lat": 35.68518
  },
  {
    "name": "ホットジョブ　さくら・すたっふ",
    "address": "東京都世田谷区北沢一丁目２３番１２号",
    "lng": 139.67221,
    "lat": 35.66431
  },
  {
    "name": "アースサポ－ト板橋",
    "address": "東京都板橋区赤塚６－７－２０",
    "lng": 139.64668,
    "lat": 35.77666
  },
  {
    "name": "トモ・ケアサービス",
    "address": "東京都渋谷区渋谷２－１２－１２三貴ビル４０３",
    "lng": 139.7076,
    "lat": 35.65903
  },
  {
    "name": "ハーティハウス恵比寿訪問介護事業所",
    "address": "東京都渋谷区東３－２４－８マーサ恵比寿３０１",
    "lng": 139.70938,
    "lat": 35.64922
  },
  {
    "name": "ケア２１渋谷",
    "address": "東京都渋谷区西原一丁目２７番３号藤井マンション１階",
    "lng": 139.67928,
    "lat": 35.67727
  },
  {
    "name": "ばむりぃ",
    "address": "東京都渋谷区本町二丁目２０番６号",
    "lng": 139.68069,
    "lat": 35.6835
  },
  {
    "name": "やさしい手渋谷東訪問介護事業所",
    "address": "東京都渋谷区東２－２６－１４ＮＮ．ＢＬＤＧ．３階",
    "lng": 139.70724,
    "lat": 35.65239
  },
  {
    "name": "有限会社　アルカディアライフ",
    "address": "東京都渋谷区東一丁目３１番１９号　マンション渋谷並木橋９０１号",
    "lng": 139.70657,
    "lat": 35.65443
  },
  {
    "name": "ホーム・ケアサービス　やわらぎ",
    "address": "東京都渋谷区広尾五丁目１６番１号キタムラ６０館ビル４０１号",
    "lng": 139.72076,
    "lat": 35.6499
  },
  {
    "name": "さわやか渋谷東センター",
    "address": "東京都渋谷区東２－１７－１２パーシモンチバ４０２",
    "lng": 139.70917,
    "lat": 35.6526
  },
  {
    "name": "青山ケアステーション",
    "address": "東京都渋谷区代々木３－３８－１２参宮ビル３０１",
    "lng": 139.69321,
    "lat": 35.68127
  },
  {
    "name": "モミの木　介護センター",
    "address": "東京都渋谷区上原１－２５－１２藤堂ビル１０２号",
    "lng": 139.68176,
    "lat": 35.66843
  },
  {
    "name": "ニチイケアセンター中野本町",
    "address": "東京都中野区本町４－４－１８",
    "lng": 139.67383,
    "lat": 35.696
  },
  {
    "name": "ニチイケアセンター野方",
    "address": "東京都中野区野方４－２１－４オービスビル４F",
    "lng": 139.65393,
    "lat": 35.72076
  },
  {
    "name": "ニチイケアセンター中野",
    "address": "東京都中野区上高田２－４６－６",
    "lng": 139.66942,
    "lat": 35.71232
  },
  {
    "name": "やさしい手中野北口訪問介護事業所",
    "address": "東京都中野区新井２－３０－４ＩＦＯビル３階",
    "lng": 139.66351,
    "lat": 35.71023
  },
  {
    "name": "江古田ホームヘルパーステーション",
    "address": "東京都中野区江古田４－１９－９",
    "lng": 139.66299,
    "lat": 35.72716
  },
  {
    "name": "サポートハウス　どんぐり",
    "address": "東京都中野区中野４－７－２　ＳＨビル３Ｆ",
    "lng": 139.66348,
    "lat": 35.70911
  },
  {
    "name": "株式会社　ふれあい介護サービス",
    "address": "東京都中野区野方６－６－２",
    "lng": 139.6534,
    "lat": 35.72059
  },
  {
    "name": "中野区福祉サービス事業団　ヘルパーステーション中野",
    "address": "東京都中野区中野４－７－１野口ビル２階",
    "lng": 139.66348,
    "lat": 35.70911
  },
  {
    "name": "社会医療法人社団　健友会　ヘルパーステーションほっと",
    "address": "東京都中野区中野５－４４－５石井メゾン１０３",
    "lng": 139.6675,
    "lat": 35.70877
  },
  {
    "name": "あおぞら在宅介護支援サービス",
    "address": "東京都中野区中央４－５３－７ＹＨＮビル１０１",
    "lng": 139.66837,
    "lat": 35.7027
  },
  {
    "name": "在宅サポートセンター　クローバー",
    "address": "東京都中野区鷺宮４－３７－１４七十七ビル４階",
    "lng": 139.63785,
    "lat": 35.72521
  },
  {
    "name": "りんごの家",
    "address": "東京都中野区中野１－６１－１１中央ビル１Ｆ",
    "lng": 139.67361,
    "lat": 35.70518
  },
  {
    "name": "ケア・アカデミー葉っぱのフレディ",
    "address": "東京都中野区東中野５－１－１　ユニゾンモール３Ｆ",
    "lng": 139.68742,
    "lat": 35.70659
  },
  {
    "name": "株式会社　マリモ",
    "address": "東京都中野区中央５－１３－１　中野セントラルマンション５０６",
    "lng": 139.66389,
    "lat": 35.69848
  },
  {
    "name": "ベタニアヘルパーステーション",
    "address": "東京都中野区江古田３－１５－２",
    "lng": 139.66408,
    "lat": 35.72824
  },
  {
    "name": "たんぽぽ介護",
    "address": "東京都中野区新井１－２６－４",
    "lng": 139.66603,
    "lat": 35.71236
  },
  {
    "name": "ケアセンター・みやぞの中野店",
    "address": "東京都中野区中央３－１３－１１ＭＧビル３０２",
    "lng": 139.67389,
    "lat": 35.70207
  },
  {
    "name": "有限会社　城西",
    "address": "東京都中野区江古田３丁目６番９号　Ｊビル１Ｆ",
    "lng": 139.66832,
    "lat": 35.72633
  },
  {
    "name": "おおきなき野方",
    "address": "東京都中野区野方４－２１－１ハウスポート野方ビル１Ｆ",
    "lng": 139.65393,
    "lat": 35.72076
  },
  {
    "name": "株式会社　畑中ケアサービス中野",
    "address": "東京都中野区中野５－３２－６城西ビル２０３",
    "lng": 139.6671,
    "lat": 35.70641
  },
  {
    "name": "株式会社つなしま　ふれあいサービス",
    "address": "東京都中野区新井３－３６－３マノワールＩＳＨＩＤＡⅡ２０３",
    "lng": 139.6602,
    "lat": 35.71647
  },
  {
    "name": "みつ葉訪問介護事業所",
    "address": "東京都中野区本町３－８－１５矢崎コープ１０１",
    "lng": 139.67627,
    "lat": 35.69382
  },
  {
    "name": "ＮＰＯぱれっと",
    "address": "東京都中野区野方六丁目５１番１２号マースコーポ野方１階",
    "lng": 139.6503,
    "lat": 35.72337
  },
  {
    "name": "つくしんぼ",
    "address": "東京都中野区上鷺宮２－１８－４７",
    "lng": 139.63356,
    "lat": 35.729
  },
  {
    "name": "ハナ・ケアサービス",
    "address": "東京都中野区新井一丁目６番４号　明和ハイム中野１階",
    "lng": 139.66757,
    "lat": 35.71008
  },
  {
    "name": "有限会社つくしの会",
    "address": "東京都中野区弥生町三丁目７番５号",
    "lng": 139.6752,
    "lat": 35.6889
  },
  {
    "name": "アースサポート中野中央",
    "address": "東京都中野区弥生町２－４３－２",
    "lng": 139.67108,
    "lat": 35.69133
  },
  {
    "name": "株式会社　大起エンゼルヘルプ　中野ケアセンター",
    "address": "東京都中野区野方５－１６－６ノガタファイブ１Ｆ",
    "lng": 139.65085,
    "lat": 35.71885
  },
  {
    "name": "ＮＰＯ　ヘルパーステーション　中野の郷",
    "address": "東京都中野区弥生町２－５２－４城西弥生町マンション１０６",
    "lng": 139.66948,
    "lat": 35.69079
  },
  {
    "name": "愛の手",
    "address": "東京都杉並区高円寺南５－３６－８",
    "lng": 139.65796,
    "lat": 35.70428
  },
  {
    "name": "ふたば新中野",
    "address": "東京都中野区本町四丁目４８番１７号新中野駅上プラザ３０２号室",
    "lng": 139.66779,
    "lat": 35.69689
  },
  {
    "name": "テルウェル東日本　中野介護センタ",
    "address": "東京都中野区弥生町３－３０－１加藤ビル１階",
    "lng": 139.67346,
    "lat": 35.68832
  },
  {
    "name": "ニチイケアセンタ－東中野",
    "address": "東京都中野区東中野１－５９－６信菱ビル２階",
    "lng": 139.68298,
    "lat": 35.70551
  },
  {
    "name": "ほほえみケアサービス",
    "address": "東京都練馬区貫井４－１６－１０－１０２",
    "lng": 139.6319,
    "lat": 35.74293
  },
  {
    "name": "ケア２１　中野",
    "address": "東京都中野区江古田４－３０－３岡村ビル２階",
    "lng": 139.66228,
    "lat": 35.72451
  },
  {
    "name": "ハート介護サービス中野",
    "address": "東京都中野区中野２－２３－１ニューグリーンビル５０５",
    "lng": 139.66751,
    "lat": 35.70471
  },
  {
    "name": "ニッキケアサービス",
    "address": "東京都中野区中野５－３７－４佐藤ハイツ１０1号",
    "lng": 139.668,
    "lat": 35.70767
  },
  {
    "name": "生活協同組合パルシステム東京ホームヘルプサービス「中野陽だまり」",
    "address": "東京都中野区東中野四丁目７番９号",
    "lng": 139.68427,
    "lat": 35.70781
  },
  {
    "name": "さくらの会",
    "address": "東京都中野区上高田４－４６－１１",
    "lng": 139.67572,
    "lat": 35.71529
  },
  {
    "name": "有限会社　なでしこ会",
    "address": "東京都練馬区上石神井２－２５－４　エンドウビル３０５",
    "lng": 139.59163,
    "lat": 35.72681
  },
  {
    "name": "ASK",
    "address": "東京都中野区上鷺宮４－１７－５ホワイトキャッスル上鷺宮２０６",
    "lng": 139.62938,
    "lat": 35.73489
  },
  {
    "name": "やさしい手中野南口訪問介護事業所",
    "address": "東京都中野区中央３－５０－９　ワタナベセカンドビル２階",
    "lng": 139.673,
    "lat": 35.70219
  },
  {
    "name": "ふくろうサポート",
    "address": "東京都中野区沼袋４－２７－１２",
    "lng": 139.66235,
    "lat": 35.72202
  },
  {
    "name": "東電さわやかケア中野・訪問介護",
    "address": "東京都中野区中央１－１－３　新都心中央ビル１階",
    "lng": 139.68681,
    "lat": 35.69714
  },
  {
    "name": "有限会社　ケアネット三和",
    "address": "東京都杉並区高円寺北三丁目２０番９号　サイチハイツ３０１号",
    "lng": 139.64897,
    "lat": 35.70691
  },
  {
    "name": "ニチイケアセンター荻窪",
    "address": "東京都杉並区荻窪１－１５－１３",
    "lng": 139.62256,
    "lat": 35.69362
  },
  {
    "name": "日介センター杉並",
    "address": "東京都杉並区大宮１－３－１２　ギャレリア杉並２０３号室",
    "lng": 139.64389,
    "lat": 35.6821
  },
  {
    "name": "相仁介護支援サービス",
    "address": "東京都杉並区清水１－２６－１７メゾン開発ビル１階",
    "lng": 139.61513,
    "lat": 35.71085
  },
  {
    "name": "有限会社　松庵ケアサービス",
    "address": "東京都杉並区松庵３－３９－１０",
    "lng": 139.59856,
    "lat": 35.70269
  },
  {
    "name": "ベストサポート杉並　ヘルパーステーション",
    "address": "東京都杉並区荻窪５－２９－２０パシフィックアークビル７階",
    "lng": 139.62122,
    "lat": 35.70349
  },
  {
    "name": "有限会社　白鷺介護サービス",
    "address": "東京都杉並区下井草３－４１－７サンビル２階",
    "lng": 139.62274,
    "lat": 35.72403
  },
  {
    "name": "ニチイケアセンター井荻",
    "address": "東京都杉並区上井草１－３１－２　金剛山ビル２階",
    "lng": 139.61394,
    "lat": 35.72464
  },
  {
    "name": "おおきなき杉並",
    "address": "東京都杉並区南荻窪４－２９－１０田丸ビル５０３号",
    "lng": 139.61624,
    "lat": 35.70242
  },
  {
    "name": "アースサポート高円寺",
    "address": "東京都杉並区高円寺北２丁目１４番２６号",
    "lng": 139.65367,
    "lat": 35.70668
  },
  {
    "name": "ブース記念訪問介護ステーション　ルツ・ナオミ",
    "address": "東京都杉並区和田１－４１－２５",
    "lng": 139.65965,
    "lat": 35.69183
  },
  {
    "name": "有限会社　いづみヘルパーステーション",
    "address": "東京都杉並区和泉１－２３－１７ピース和泉２０２",
    "lng": 139.65822,
    "lat": 35.67482
  },
  {
    "name": "虹のヘルパーステーション",
    "address": "東京都杉並区和田２－４２－５",
    "lng": 139.6557,
    "lat": 35.69189
  },
  {
    "name": "ライフケア夢工房",
    "address": "東京都杉並区善福寺２－１１－１２",
    "lng": 139.59334,
    "lat": 35.71103
  },
  {
    "name": "ベストケアサービス杉並",
    "address": "東京都杉並区荻窪３－１２－６",
    "lng": 139.6241,
    "lat": 35.69653
  },
  {
    "name": "青山會ケアサービス　杉並ステーション",
    "address": "東京都杉並区高円寺南２－３５－１６高南ビル３０２",
    "lng": 139.65433,
    "lat": 35.69917
  },
  {
    "name": "上井草虹のヘルパーステーション",
    "address": "東京都杉並区今川３－３０－１０",
    "lng": 139.60562,
    "lat": 35.71895
  },
  {
    "name": "やさしい手荻窪訪問介護事業所",
    "address": "東京都杉並区上荻１－１６－１６喜屋ビル４Ｆ",
    "lng": 139.61905,
    "lat": 35.70544
  },
  {
    "name": "特定非営利活動法人　たすけあいワーカーズ　さざんか",
    "address": "東京都杉並区荻窪五丁目１８番１１号サニーシティ荻窪４０１号",
    "lng": 139.61865,
    "lat": 35.7038
  },
  {
    "name": "ケアプランニング結い杉並",
    "address": "東京都杉並区成田東五丁目４２番２号グランシャリオ１F",
    "lng": 139.63509,
    "lat": 35.69906
  },
  {
    "name": "ふれあい介護サービス阿佐ヶ谷",
    "address": "東京都杉並区阿佐谷南一丁目１３番１７号　福吉ビル２０１号",
    "lng": 139.63776,
    "lat": 35.69995
  },
  {
    "name": "株式会社　大起エンゼルヘルプ　杉並ケアセンター",
    "address": "東京都杉並区方南２－６－２８",
    "lng": 139.65892,
    "lat": 35.6806
  },
  {
    "name": "ヘルパーステーション楓",
    "address": "東京都杉並区阿佐谷南一丁目１6番１0号　巳善第二ビル７階",
    "lng": 139.63599,
    "lat": 35.70086
  },
  {
    "name": "有限会社　アイテ・ケア",
    "address": "東京都練馬区下石神井４－２４－１",
    "lng": 139.60298,
    "lat": 35.72648
  },
  {
    "name": "野﨑クリニックヘルパーステーション",
    "address": "東京都杉並区阿佐谷南３－３７－１３　大同ビル３０６",
    "lng": 139.63477,
    "lat": 35.70434
  },
  {
    "name": "ケアマックス杉並",
    "address": "東京都杉並区高井戸西１－３３－１２富士見ヶ丘センタービル１０７",
    "lng": 139.60858,
    "lat": 35.68373
  },
  {
    "name": "山口ケアサービス",
    "address": "東京都世田谷区松原２－２８－１８　１階",
    "lng": 139.64883,
    "lat": 35.66745
  },
  {
    "name": "特定非営利活動法人　ともしび会　ヘルパーステーション「えん」",
    "address": "東京都杉並区和田一丁目１２番２０号",
    "lng": 139.66147,
    "lat": 35.68998
  },
  {
    "name": "有限会社　ほっとらいふ",
    "address": "東京都杉並区和田１－１４－３",
    "lng": 139.66319,
    "lat": 35.69022
  },
  {
    "name": "医療法人社団　蘭松会　蘭松医院",
    "address": "東京都杉並区成田東五丁目３６番１１号　蘭松医院内",
    "lng": 139.63286,
    "lat": 35.69929
  },
  {
    "name": "有限会社ベルデ　杉並ヘルパーセンター",
    "address": "東京都杉並区天沼３－１４－２　プレジデント荻窪１１０号室",
    "lng": 139.61754,
    "lat": 35.70851
  },
  {
    "name": "ケア・センター　杉っ子",
    "address": "東京都杉並区阿佐谷南２－５－２",
    "lng": 139.6418,
    "lat": 35.70238
  },
  {
    "name": "ウォームハート杉並",
    "address": "東京都杉並区西荻南３－２２－９　エクセリア西荻窪２－Ａ",
    "lng": 139.60396,
    "lat": 35.70375
  },
  {
    "name": "ひまわり介護センター",
    "address": "東京都杉並区阿佐谷北１－４２－６ベルメゾン阿佐ヶ谷　２階",
    "lng": 139.63599,
    "lat": 35.70936
  },
  {
    "name": "ハッピーサービス",
    "address": "東京都杉並区和泉４－４７－２５メゾンディ松山２０５",
    "lng": 139.65283,
    "lat": 35.68258
  },
  {
    "name": "アースサポート永福",
    "address": "東京都杉並区永福二丁目５０番２０号",
    "lng": 139.64268,
    "lat": 35.67447
  },
  {
    "name": "ケアハウスしゃぼん玉",
    "address": "東京都杉並区成田東１－８－３－２０１",
    "lng": 139.63936,
    "lat": 35.68835
  },
  {
    "name": "テルウェル東日本　練馬介護センタ",
    "address": "東京都練馬区関町南４－１６－２０",
    "lng": 139.57132,
    "lat": 35.7224
  },
  {
    "name": "有限会社　堀ノ内　ケアサービス",
    "address": "東京都杉並区堀ノ内三丁目２番１３号　妙光堂ビル１階",
    "lng": 139.65352,
    "lat": 35.69069
  },
  {
    "name": "ヘルパーステーション　「ひいらぎ」",
    "address": "東京都杉並区下井草三丁目２９番１０号ー３０１　佐藤ビル３階",
    "lng": 139.62514,
    "lat": 35.72212
  },
  {
    "name": "特定非営利活動法人在宅介護福祉センター浜田山",
    "address": "東京都杉並区成田西３丁目３番２５号",
    "lng": 139.63171,
    "lat": 35.69169
  },
  {
    "name": "株式会社　あかね　杉並事業所",
    "address": "東京都杉並区和田３－３０－８ＧＳハイム１０６",
    "lng": 139.65465,
    "lat": 35.69529
  },
  {
    "name": "ユニバーサル介護センター永福",
    "address": "東京都杉並区永福３－２１－４",
    "lng": 139.63507,
    "lat": 35.67582
  },
  {
    "name": "ケアステーション　銀河",
    "address": "東京都杉並区久我山四丁目２番２９号　リベスト久我山ビル２Ｆ",
    "lng": 139.59935,
    "lat": 35.68872
  },
  {
    "name": "有限会社　シーズ訪問介護事業所",
    "address": "東京都杉並区高円寺南５－２５－１３静南ハイツ２０１",
    "lng": 139.65834,
    "lat": 35.70344
  },
  {
    "name": "ヘルパーセンタートマト",
    "address": "東京都杉並区上高井戸一丁目２番１号",
    "lng": 139.61487,
    "lat": 35.66979
  },
  {
    "name": "ベルケア",
    "address": "東京都杉並区浜田山１－２４－２０ラセイム新美Ⅰ　１１１号室",
    "lng": 139.62949,
    "lat": 35.67891
  },
  {
    "name": "ホームヘルパーステーションすぎなみ正吉苑",
    "address": "東京都杉並区清水２－１５－２４",
    "lng": 139.61763,
    "lat": 35.71428
  },
  {
    "name": "ベネッセ介護センター高円寺",
    "address": "東京都杉並区高円寺南４－２６－１６ビクトリアプラザ高円寺４階",
    "lng": 139.64941,
    "lat": 35.70417
  },
  {
    "name": "ケアサポート　かすみ草",
    "address": "東京都杉並区阿佐谷南１－９－１２エコー２－Ａ",
    "lng": 139.63843,
    "lat": 35.69911
  },
  {
    "name": "ニチイケアセンター　方南町",
    "address": "東京都杉並区方南２－２９－６　野口ビル１階",
    "lng": 139.65648,
    "lat": 35.68578
  },
  {
    "name": "日本リック訪問介護杉並事業所",
    "address": "東京都杉並区阿佐谷南１－９－７コマムラビル１０１号",
    "lng": 139.63843,
    "lat": 35.69911
  },
  {
    "name": "浴風会ヘルパーステーション",
    "address": "東京都杉並区高井戸西一丁目１２番１号",
    "lng": 139.60878,
    "lat": 35.68087
  },
  {
    "name": "ハート・ケア　たんぽぽ",
    "address": "東京都杉並区阿佐谷北６－３７－３",
    "lng": 139.63956,
    "lat": 35.71526
  },
  {
    "name": "ひゅーまんネット",
    "address": "東京都杉並区阿佐谷北１－３６－３ＹＯＫＯＫＡＷＡビル３階",
    "lng": 139.63603,
    "lat": 35.70877
  },
  {
    "name": "ヘルプメイト井草",
    "address": "東京都杉並区井草３－２－４　レヂオンス井荻３０３",
    "lng": 139.61394,
    "lat": 35.7249
  },
  {
    "name": "愛の手ラブハンズ",
    "address": "東京都杉並区高円寺南３－４１－４",
    "lng": 139.64432,
    "lat": 35.70342
  },
  {
    "name": "リリーケアセンター",
    "address": "東京都杉並区高井戸西１－３３－１８ウィンドスクェア３０２",
    "lng": 139.60858,
    "lat": 35.68373
  },
  {
    "name": "医療法人財団　アドベンチスト会　東京衛生病院　訪問介護ステーション",
    "address": "東京都杉並区天沼３－１７－１５",
    "lng": 139.61937,
    "lat": 35.70866
  },
  {
    "name": "ＴＥＮＤＥＲ　ケアサービス",
    "address": "東京都杉並区高井戸西２－１４－１３",
    "lng": 139.6115,
    "lat": 35.68642
  },
  {
    "name": "ニチイケアセンター桜台",
    "address": "東京都練馬区桜台１－８－１高橋ビル１階",
    "lng": 139.66238,
    "lat": 35.7392
  },
  {
    "name": "有限会社　ホームケアながさき",
    "address": "東京都豊島区南長崎５－８－１２　２Ｆ",
    "lng": 139.68204,
    "lat": 35.72768
  },
  {
    "name": "株式会社　大起エンゼルヘルプ　豊島ケアセンター",
    "address": "東京都豊島区池袋４－１１－４メゾンドール池袋１０１",
    "lng": 139.7072,
    "lat": 35.73879
  },
  {
    "name": "有限会社　東洋ケアセンター",
    "address": "東京都豊島区北大塚２－１０－１　細野ビル５階",
    "lng": 139.72716,
    "lat": 35.73367
  },
  {
    "name": "株式会社　エヌ・テイ豊島",
    "address": "東京都豊島区池袋２－７３－１",
    "lng": 139.70999,
    "lat": 35.73631
  },
  {
    "name": "医療法人社団　日心会　おおつか訪問看護ステーション",
    "address": "東京都豊島区北大塚１－１８－８　田村ビル２階",
    "lng": 139.73027,
    "lat": 35.7327
  },
  {
    "name": "有限会社　あさくらケアハウス　ヘルパーステーション",
    "address": "東京都豊島区南大塚２－４３－４",
    "lng": 139.73015,
    "lat": 35.72999
  },
  {
    "name": "ＲＳＣ豊島ケアセンター",
    "address": "東京都豊島区南池袋３－２４－１５Ｗｉｓｅビル３階",
    "lng": 139.71669,
    "lat": 35.72395
  },
  {
    "name": "株式会社　グレイス・ケアー",
    "address": "東京都豊島区南池袋四丁目１７番２号",
    "lng": 139.72026,
    "lat": 35.72505
  },
  {
    "name": "山吹の里ホームヘルパーステーション",
    "address": "東京都豊島区高田３－３７－１７",
    "lng": 139.71037,
    "lat": 35.71601
  },
  {
    "name": "養浩荘ホームヘルパーステーション",
    "address": "東京都豊島区池袋４－２５－１０",
    "lng": 139.71088,
    "lat": 35.73731
  },
  {
    "name": "ニチイケアセンター豊島",
    "address": "東京都豊島区池袋４－２７－５和田ビル１階",
    "lng": 139.71045,
    "lat": 35.73793
  },
  {
    "name": "株式会社ケアスタッフ千早",
    "address": "東京都豊島区千早１－２８－１５",
    "lng": 139.69534,
    "lat": 35.73271
  },
  {
    "name": "バリアフリーサポート巣鴨訪問介護事業所",
    "address": "東京都豊島区巣鴨２－４－２　岡田ビル７０５",
    "lng": 139.73924,
    "lat": 35.73449
  },
  {
    "name": "リックス介護サービス",
    "address": "東京都豊島区西池袋一丁目２番２号　ウェストワンビル２階",
    "lng": 139.70921,
    "lat": 35.72768
  },
  {
    "name": "おおきなき豊島",
    "address": "東京都豊島区南大塚３－３９－２南大塚ＭＴビル３階",
    "lng": 139.72725,
    "lat": 35.72966
  },
  {
    "name": "あおぞらケアサービス",
    "address": "東京都豊島区西巣鴨３－２２－６",
    "lng": 139.72931,
    "lat": 35.74254
  },
  {
    "name": "ＲＳＣ駒込ケアセンター",
    "address": "東京都豊島区駒込１－１０－９コーポフェリーチェ２０２",
    "lng": 139.75038,
    "lat": 35.7347
  },
  {
    "name": "株式会社協立ケアサービス",
    "address": "東京都豊島区巣鴨１－２４－３小島ビル１階",
    "lng": 139.73979,
    "lat": 35.73151
  },
  {
    "name": "訪問介護センター花",
    "address": "東京都西東京市下保谷１丁目７番２２号",
    "lng": 139.55956,
    "lat": 35.74979
  },
  {
    "name": "社会福祉法人　豊芯会ホームヘルプサービス事業所",
    "address": "東京都豊島区北大塚３－３４－７",
    "lng": 139.72672,
    "lat": 35.73506
  },
  {
    "name": "マルシモホームヘルプサービス",
    "address": "東京都豊島区南大塚２－３１－１１共栄大塚ビル３階",
    "lng": 139.73219,
    "lat": 35.72821
  },
  {
    "name": "有限会社　寿晴介護サービス",
    "address": "東京都豊島区駒込４－８－９",
    "lng": 139.74149,
    "lat": 35.73491
  },
  {
    "name": "ケアリッチ",
    "address": "東京都豊島区南池袋２－６－１２宮城ビル２Ｆ",
    "lng": 139.71564,
    "lat": 35.72518
  },
  {
    "name": "介護サービス　キョーエー",
    "address": "東京都豊島区西池袋３－８－７",
    "lng": 139.70329,
    "lat": 35.72753
  },
  {
    "name": "サン・ケアセンター",
    "address": "東京都豊島区西巣鴨３－１５－１０ＵＫビル２０３",
    "lng": 139.72998,
    "lat": 35.74192
  },
  {
    "name": "さくら介護サービス豊島",
    "address": "東京都豊島区池袋３－１４－１６",
    "lng": 139.70143,
    "lat": 35.73486
  },
  {
    "name": "やすら木",
    "address": "東京都豊島区雑司が谷２－２２－１８・１Ｆ",
    "lng": 139.71761,
    "lat": 35.71939
  },
  {
    "name": "ヨウコー　板橋ケアステーション　訪問介護",
    "address": "東京都板橋区板橋１－１０－１４",
    "lng": 139.71735,
    "lat": 35.74641
  },
  {
    "name": "アクセスポイント池袋",
    "address": "東京都豊島区池袋２－５５－１３合田ビル１階",
    "lng": 139.7079,
    "lat": 35.73412
  },
  {
    "name": "有限会社　ふくふくケアネス",
    "address": "東京都豊島区上池袋２－２－１　久保木ビル２階",
    "lng": 139.71667,
    "lat": 35.7349
  },
  {
    "name": "ゆきわりそうこの町サービス",
    "address": "東京都豊島区南長崎６－１９－５ゆきわりそう１階",
    "lng": 139.68024,
    "lat": 35.7298
  },
  {
    "name": "ケアフレンド豊島",
    "address": "東京都豊島区長崎２－４－９",
    "lng": 139.69034,
    "lat": 35.72772
  },
  {
    "name": "カスミ・ケア",
    "address": "東京都荒川区東日暮里三丁目１７番地１号",
    "lng": 139.78044,
    "lat": 35.73185
  },
  {
    "name": "社会福祉法人　豊島区社会福祉事業団　訪問介護ステーション",
    "address": "東京都豊島区西巣鴨２－３０－１９",
    "lng": 139.72845,
    "lat": 35.73919
  },
  {
    "name": "東京保健生活協同組合介護センター健生豊島",
    "address": "東京都豊島区雑司が谷３－３－１７　２階",
    "lng": 139.71388,
    "lat": 35.72041
  },
  {
    "name": "東洋企画",
    "address": "東京都練馬区早宮１－４４－２ファミーユ藤　１０３号",
    "lng": 139.65805,
    "lat": 35.75388
  },
  {
    "name": "特定非営利活動法人ぶどうの木",
    "address": "東京都豊島区池袋本町３－１－１０コアンドボカージュ１１１",
    "lng": 139.71237,
    "lat": 35.7416
  },
  {
    "name": "ケアステーション　オープラス",
    "address": "東京都豊島区要町２－４－８　大恵ビル１Ｆ",
    "lng": 139.69321,
    "lat": 35.73326
  },
  {
    "name": "東電さわやかケアポートとしま・訪問介護",
    "address": "東京都豊島区北大塚１－１２－１５協同興業北大塚ビル",
    "lng": 139.73235,
    "lat": 35.73223
  },
  {
    "name": "株式会社　大起エンゼルヘルプ　北ケアセンター",
    "address": "東京都北区西ケ原１－３０－１東高西ヶ原ペアシティ１０３",
    "lng": 139.74451,
    "lat": 35.74419
  },
  {
    "name": "友愛ヘルパーステーション",
    "address": "東京都北区堀船三丁目29番14号",
    "lng": 139.74849,
    "lat": 35.7518
  },
  {
    "name": "宝ケアサービス王子",
    "address": "東京都北区王子本町１－２５－１８",
    "lng": 139.73407,
    "lat": 35.75441
  },
  {
    "name": "アースサポート豊島",
    "address": "東京都豊島区上池袋１－７－７",
    "lng": 139.71964,
    "lat": 35.73423
  },
  {
    "name": "やさしい手　赤羽　訪問介護事業所",
    "address": "東京都北区赤羽２－６９－４クリニックプラザ２１　３F",
    "lng": 139.72276,
    "lat": 35.78256
  },
  {
    "name": "ひまわり十条",
    "address": "東京都北区十条台２－６－２９",
    "lng": 139.71848,
    "lat": 35.75861
  },
  {
    "name": "まごころ介護ネットワーク",
    "address": "東京都北区東田端２－７－１６",
    "lng": 139.76253,
    "lat": 35.74098
  },
  {
    "name": "有限会社　ライフケアー",
    "address": "東京都足立区小台２－２８－１６",
    "lng": 139.76007,
    "lat": 35.75753
  },
  {
    "name": "ニチイケアセンター王子",
    "address": "東京都北区神谷１－９－７　エクステンド王子神谷１階",
    "lng": 139.7346,
    "lat": 35.76905
  },
  {
    "name": "ウエルガーデン西が丘園",
    "address": "東京都北区西が丘３丁目１６番地２７",
    "lng": 139.707,
    "lat": 35.76714
  },
  {
    "name": "トキホームヘルプステイション",
    "address": "東京都北区東十条３－１０－１５東十条サンハイツＤ棟１０４号室",
    "lng": 139.73233,
    "lat": 35.76669
  },
  {
    "name": "王子光照苑　ホームヘルパーステーション",
    "address": "東京都北区王子３－３－１",
    "lng": 139.73337,
    "lat": 35.7604
  },
  {
    "name": "区民介護株式会社　ほのぼのステーション赤羽",
    "address": "東京都北区赤羽西１－１８－８　アネックスワカマツ２０１",
    "lng": 139.71811,
    "lat": 35.77642
  },
  {
    "name": "ひよこ訪問介護事業所",
    "address": "東京都北区東十条４－６－１８笹島ビル２０１号",
    "lng": 139.72821,
    "lat": 35.76689
  },
  {
    "name": "区民介護の家　あゆみ有限会社",
    "address": "東京都北区豊島１－１８－６",
    "lng": 139.73962,
    "lat": 35.75883
  },
  {
    "name": "シスター介護サービス",
    "address": "東京都北区赤羽南一丁目２７番７号　ハイツキムラ1Ｆ",
    "lng": 139.72433,
    "lat": 35.7757
  },
  {
    "name": "有限会社　星ケアーサービス",
    "address": "東京都北区田端１－８－８秋庭コーポ１階",
    "lng": 139.76068,
    "lat": 35.73244
  },
  {
    "name": "日生ホームヘルプサービス中里",
    "address": "東京都北区西ケ原１－４６－２４第２神部コーポ１Ｆ",
    "lng": 139.74335,
    "lat": 35.74151
  },
  {
    "name": "ゆいケアセンター尾久ステーション",
    "address": "東京都北区昭和町一丁目４番１号",
    "lng": 139.75687,
    "lat": 35.74614
  },
  {
    "name": "東京ふれあい・ほほえみヘルパーステーション",
    "address": "東京都北区堀船３－３１－１５東京ふれあい医療生活協同組合　２階",
    "lng": 139.74803,
    "lat": 35.7513
  },
  {
    "name": "ヘルパーステーションのぞみ",
    "address": "東京都北区豊島３－７－２",
    "lng": 139.74524,
    "lat": 35.76083
  },
  {
    "name": "アイ・ケアセンター畑赤羽事業所",
    "address": "東京都北区赤羽西１－２－４",
    "lng": 139.72067,
    "lat": 35.77605
  },
  {
    "name": "有限会社　ウエルストンヘルパーステーション",
    "address": "東京都北区豊島七丁目２２番３号",
    "lng": 139.74388,
    "lat": 35.76503
  },
  {
    "name": "株式会社　クローバーサービス",
    "address": "東京都北区豊島１－３７－６　２Ｆ",
    "lng": 139.74185,
    "lat": 35.75834
  },
  {
    "name": "滝野川ホームヘルプサービス",
    "address": "東京都北区滝野川２－３２－１２滝野川病院５階）",
    "lng": 139.73126,
    "lat": 35.75038
  },
  {
    "name": "はあとふる",
    "address": "東京都北区豊島八丁目１４番９号",
    "lng": 139.74004,
    "lat": 35.76564
  },
  {
    "name": "エムエム介護サービス",
    "address": "東京都北区上十条２－２１－４",
    "lng": 139.71997,
    "lat": 35.76062
  },
  {
    "name": "有限会社　ケアネットワーク",
    "address": "東京都北区赤羽２－４－１０　金剛第二ビル３Ｆ",
    "lng": 139.72437,
    "lat": 35.77925
  },
  {
    "name": "東京都北区ホームヘルパーステーション清水坂あじさい荘",
    "address": "東京都北区中十条四丁目１６番３２号",
    "lng": 139.72247,
    "lat": 35.76979
  },
  {
    "name": "赤羽北さくら荘ヘルパーステーション",
    "address": "東京都北区赤羽北３－６－１０",
    "lng": 139.70686,
    "lat": 35.78315
  },
  {
    "name": "アシスト赤羽ケアセンター",
    "address": "東京都北区赤羽１－７－９赤羽第一葉山ビル４階",
    "lng": 139.72223,
    "lat": 35.77894
  },
  {
    "name": "リーフ介護ステーション",
    "address": "東京都北区上十条三丁目２５番８号　第７オカダビル３０１号室",
    "lng": 139.71837,
    "lat": 35.76289
  },
  {
    "name": "らいらっくケア",
    "address": "東京都北区赤羽１－３６－１１",
    "lng": 139.72124,
    "lat": 35.78156
  },
  {
    "name": "ケア２１　王子",
    "address": "東京都北区王子本町１－２８－５フォレストヒルズ１階",
    "lng": 139.73262,
    "lat": 35.75474
  },
  {
    "name": "レインボー　ケア　サービス",
    "address": "東京都北区東十条３－８－５中原ビル１F",
    "lng": 139.73114,
    "lat": 35.76621
  },
  {
    "name": "ヘルパーステーションしらゆり",
    "address": "東京都北区赤羽南１－２－６北都ビル３Ｆ",
    "lng": 139.72282,
    "lat": 35.77581
  },
  {
    "name": "有限会社　愛訪問ケアサービス",
    "address": "東京都北区滝野川六丁目５６番１４号",
    "lng": 139.72266,
    "lat": 35.74484
  },
  {
    "name": "ふれんど",
    "address": "東京都北区東十条３－９－１１　１０１号室",
    "lng": 139.73152,
    "lat": 35.76656
  },
  {
    "name": "ヘルパーステーション　ハミング駒込",
    "address": "東京都北区中里１－１２－１１小堀ビル１０２",
    "lng": 139.75165,
    "lat": 35.73692
  },
  {
    "name": "ニチイケアセンター飛鳥山",
    "address": "東京都北区滝野川１－６３－６藤和シティコープ飛鳥山公園２０１",
    "lng": 139.73547,
    "lat": 35.74918
  },
  {
    "name": "株式会社ケアサービスあうわ",
    "address": "東京都北区滝野川３－８６－２－１０２",
    "lng": 139.7305,
    "lat": 35.75112
  },
  {
    "name": "マエノヘルパーセンター",
    "address": "東京都北区西が丘１－１５－１１",
    "lng": 139.71428,
    "lat": 35.76966
  },
  {
    "name": "株式会社　さくら介護",
    "address": "東京都北区上十条４－２－１６ハイホームヴェルデ館１０２",
    "lng": 139.71774,
    "lat": 35.76435
  },
  {
    "name": "ヘルパーステーション　わくわくかん",
    "address": "東京都北区赤羽南２－６－６スカイブリッジビルＢ１階",
    "lng": 139.72285,
    "lat": 35.77238
  },
  {
    "name": "宝ケアサービス赤羽",
    "address": "東京都北区赤羽１－６０－９宝ビル３Ｆ",
    "lng": 139.72049,
    "lat": 35.78259
  },
  {
    "name": "アースサポート赤羽",
    "address": "東京都北区志茂２－４０－７",
    "lng": 139.72797,
    "lat": 35.77951
  },
  {
    "name": "株式会社　大起エンゼルヘルプ　荒川ケアセンター",
    "address": "東京都荒川区町屋５－１０－５",
    "lng": 139.77835,
    "lat": 35.75108
  },
  {
    "name": "大和田ヘルパーステーション指定訪問介護事業所",
    "address": "東京都荒川区南千住二丁目14番7号",
    "lng": 139.79541,
    "lat": 35.72971
  },
  {
    "name": "ニチイケアセンター西日暮里",
    "address": "東京都荒川区西日暮里１－１９－１４　都ビル１階",
    "lng": 139.77534,
    "lat": 35.73577
  },
  {
    "name": "ヘルパーステーション虹",
    "address": "東京都荒川区荒川４－５４－５",
    "lng": 139.78139,
    "lat": 35.73972
  },
  {
    "name": "ひまわり医療介護サービス株式会社",
    "address": "東京都荒川区南千住５－１１－３",
    "lng": 139.79483,
    "lat": 35.73433
  },
  {
    "name": "株式会社　アルプスケアサービス　訪問介護ステーション",
    "address": "東京都荒川区荒川八丁目２２番３号",
    "lng": 139.7894,
    "lat": 35.7405
  },
  {
    "name": "宮本ケアステーション",
    "address": "東京都荒川区町屋２－１４－９　メゾンドカスターナ１０１",
    "lng": 139.77866,
    "lat": 35.74445
  },
  {
    "name": "荒川サポートセンターかどころ",
    "address": "東京都荒川区西日暮里４-１４-１　１階",
    "lng": 139.76294,
    "lat": 35.73251
  },
  {
    "name": "サルビアケアサービス",
    "address": "東京都荒川区町屋２－２０－１４第５下田ハイツ１０３",
    "lng": 139.77704,
    "lat": 35.74448
  },
  {
    "name": "丸藤ヘルパーステーション",
    "address": "東京都荒川区南千住七丁目３番７号２階",
    "lng": 139.79819,
    "lat": 35.7339
  },
  {
    "name": "ウカイ薬局ひまわりケアセンター",
    "address": "東京都荒川区荒川二丁目４番２号",
    "lng": 139.7821,
    "lat": 35.73586
  },
  {
    "name": "やさしい手日暮里訪問介護事業所",
    "address": "東京都荒川区東日暮里５－５２－２神谷ビル５０１",
    "lng": 139.7715,
    "lat": 35.72778
  },
  {
    "name": "いとう介護サービス",
    "address": "東京都荒川区南千住５－３１－２クレセント南千住Ⅱ１０３号",
    "lng": 139.7962,
    "lat": 35.73212
  },
  {
    "name": "アイエムケアセンター",
    "address": "東京都荒川区町屋４－１－６　飯野ビル１０１号室",
    "lng": 139.77933,
    "lat": 35.74577
  },
  {
    "name": "株式会社　介護ユーアイヘルパーステーション",
    "address": "東京都荒川区西尾久七丁目２７番９号",
    "lng": 139.75543,
    "lat": 35.74901
  },
  {
    "name": "しあわせステーション",
    "address": "東京都荒川区荒川２－４６－５",
    "lng": 139.78209,
    "lat": 35.73978
  },
  {
    "name": "あっぷるちよだ　日暮里駅前店",
    "address": "東京都荒川区西日暮里２－１７－８千代田第二ビル４階・６階",
    "lng": 139.77205,
    "lat": 35.72923
  },
  {
    "name": "ホームケア原田",
    "address": "東京都荒川区東日暮里六丁目１０番４号　ライオンズマンション日暮里４０１号室",
    "lng": 139.77849,
    "lat": 35.73018
  },
  {
    "name": "ケア２１　荒川",
    "address": "東京都荒川区西日暮里２－３８－６アメニティー西日暮里１階",
    "lng": 139.77122,
    "lat": 35.73111
  },
  {
    "name": "ひかりケアーサービス",
    "address": "東京都荒川区南千住７－１１－１大京ハイツ１０２号",
    "lng": 139.79744,
    "lat": 35.73556
  },
  {
    "name": "訪問介護サービスセンターさくら館",
    "address": "東京都荒川区町屋７－１０－６",
    "lng": 139.78719,
    "lat": 35.74921
  },
  {
    "name": "有限会社　さくら介護サービス",
    "address": "東京都荒川区町屋三丁目１３番１９号",
    "lng": 139.78114,
    "lat": 35.74739
  },
  {
    "name": "ミレサポート",
    "address": "東京都荒川区東日暮里５－２６－４　竹山ビル1Ｆ",
    "lng": 139.77661,
    "lat": 35.72757
  },
  {
    "name": "ヘルパーステーション　おもいやり",
    "address": "東京都荒川区荒川６－６１－１ヒロマチヤ１０２号",
    "lng": 139.77528,
    "lat": 35.74228
  },
  {
    "name": "城北介護センター荒川",
    "address": "東京都荒川区荒川５－８－３スカイコーポ中田１０１",
    "lng": 139.77693,
    "lat": 35.73807
  },
  {
    "name": "特定非営利活動法人荒川すこやかネットワーク",
    "address": "東京都荒川区東日暮里２－２１－１－１０１サンウッドヤマシタ",
    "lng": 139.78513,
    "lat": 35.73113
  },
  {
    "name": "あおばサポート",
    "address": "東京都荒川区東尾久２－４３－２３",
    "lng": 139.76956,
    "lat": 35.74286
  },
  {
    "name": "ケア桃太郎",
    "address": "東京都荒川区西尾久１－１４－９",
    "lng": 139.76378,
    "lat": 35.7455
  },
  {
    "name": "株式会社　ライフケアーイタバシ　請負事業部",
    "address": "東京都板橋区板橋２－４３－４－２Ｆ",
    "lng": 139.71338,
    "lat": 35.74907
  },
  {
    "name": "ハート・ケア　みその",
    "address": "東京都板橋区成増５－６－３みどりの杜１Ｆ",
    "lng": 139.63037,
    "lat": 35.7848
  },
  {
    "name": "タイヨーライフ株式会社・本社",
    "address": "東京都板橋区高島平８－３２－１０",
    "lng": 139.66283,
    "lat": 35.79243
  },
  {
    "name": "泰心訪問介護センター",
    "address": "東京都板橋区栄町３０－１５",
    "lng": 139.70029,
    "lat": 35.75421
  },
  {
    "name": "ベスト・ケアー　ヘルパーステーション",
    "address": "東京都板橋区小茂根１－２５－２２－１０１",
    "lng": 139.67737,
    "lat": 35.74709
  },
  {
    "name": "富士介護サービスヘルパーステーション",
    "address": "東京都板橋区大山町１６番１号",
    "lng": 139.70012,
    "lat": 35.74757
  },
  {
    "name": "ハートベル桜川",
    "address": "東京都板橋区桜川二丁目１３番１７号",
    "lng": 139.67731,
    "lat": 35.75843
  },
  {
    "name": "株式会社　ユーモア",
    "address": "東京都板橋区中台１－４４－４",
    "lng": 139.67699,
    "lat": 35.76765
  },
  {
    "name": "有限会社　徳丸ケアスタッフサービス",
    "address": "東京都板橋区徳丸５－３３－１８",
    "lng": 139.65665,
    "lat": 35.77864
  },
  {
    "name": "医療法人財団　朔望会　訪問介護ビオラ",
    "address": "東京都板橋区前野町３－３６－１０",
    "lng": 139.69379,
    "lat": 35.76891
  },
  {
    "name": "有限会社　ホームケアかすみ　板橋営業所",
    "address": "東京都板橋区仲町３７－６",
    "lng": 139.69579,
    "lat": 35.75488
  },
  {
    "name": "アイ・ケアセンター畑",
    "address": "東京都板橋区蓮沼町３２－１２",
    "lng": 139.70567,
    "lat": 35.76959
  },
  {
    "name": "ハートケアサービス有限会社",
    "address": "東京都板橋区南常盤台１－３４－９高橋ビル１Ｆ",
    "lng": 139.68823,
    "lat": 35.75731
  },
  {
    "name": "ワーカーズコープ　パル板橋",
    "address": "東京都板橋区栄町２１－１２青木ビル１Ｆ",
    "lng": 139.70265,
    "lat": 35.75298
  },
  {
    "name": "株式会社　大起エンゼルヘルプ　板橋ケアセンター",
    "address": "東京都板橋区常盤台４－３７－３",
    "lng": 139.67654,
    "lat": 35.76566
  },
  {
    "name": "舟渡ヘルパーステーション",
    "address": "東京都板橋区舟渡三丁目４番８号",
    "lng": 139.68144,
    "lat": 35.79261
  },
  {
    "name": "サン・ケアサービス",
    "address": "東京都板橋区向原２－２２－１６",
    "lng": 139.67978,
    "lat": 35.74103
  },
  {
    "name": "株式会社　アサヒ・スタッフサ－ビス",
    "address": "東京都板橋区蓮沼町４－７ライオンズマンション蓮沼１０１号",
    "lng": 139.70369,
    "lat": 35.76715
  },
  {
    "name": "ニチイケアセンター中板橋",
    "address": "東京都板橋区弥生町６８番１１号　第２ハセミビル１階",
    "lng": 139.69363,
    "lat": 35.75256
  },
  {
    "name": "いずみの苑　ふれあいヘルプ事業所",
    "address": "東京都板橋区東坂下２－２－２２",
    "lng": 139.68987,
    "lat": 35.78322
  },
  {
    "name": "大谷口ケアサービス",
    "address": "東京都板橋区大谷口北町７６－２",
    "lng": 139.6862,
    "lat": 35.74883
  },
  {
    "name": "こもねヘルパーステーション",
    "address": "東京都板橋区小茂根四丁目１１番１１号",
    "lng": 139.67491,
    "lat": 35.74683
  },
  {
    "name": "ハルエ企画　ホームヘルパーサービス",
    "address": "東京都板橋区三園１－４７－７　木村整形外科２Ｆ",
    "lng": 139.64301,
    "lat": 35.79158
  },
  {
    "name": "東板橋ヘルパーステーション",
    "address": "東京都板橋区加賀２－１－１",
    "lng": 139.71501,
    "lat": 35.75444
  },
  {
    "name": "音羽台高齢者在宅サービスセンター",
    "address": "東京都板橋区成増４－３３－１",
    "lng": 139.63568,
    "lat": 35.78735
  },
  {
    "name": "ＮＰＯ・ＡＣＴたすけあいワーカーズあやとり",
    "address": "東京都板橋区徳丸２－３０－１６生活クラブ館徳丸２階",
    "lng": 139.66217,
    "lat": 35.77557
  },
  {
    "name": "えこだ介護サービス",
    "address": "東京都練馬区小竹町１－３５－２　２Ｆ",
    "lng": 139.67686,
    "lat": 35.73866
  },
  {
    "name": "有限会社　めぐりあい",
    "address": "東京都板橋区仲町３７－７",
    "lng": 139.69579,
    "lat": 35.75488
  },
  {
    "name": "ハスタ株式会社",
    "address": "東京都板橋区赤塚新町３－１７－２３",
    "lng": 139.63515,
    "lat": 35.77364
  },
  {
    "name": "スローステップ　ケアセンター",
    "address": "東京都板橋区蓮根２－１７－７",
    "lng": 139.67729,
    "lat": 35.78231
  },
  {
    "name": "アイ・ヘルパーサービス",
    "address": "東京都板橋区板橋一丁目４８番４号　ウッドリバー３ＦＡ",
    "lng": 139.71919,
    "lat": 35.74839
  },
  {
    "name": "有限会社　アラスコーポレーション　在宅介護センター",
    "address": "東京都板橋区板橋１－４７－１０樹ビル２階",
    "lng": 139.71838,
    "lat": 35.74858
  },
  {
    "name": "ドーミー城北公園訪問介護事業所",
    "address": "東京都板橋区桜川２－２－７",
    "lng": 139.67761,
    "lat": 35.7574
  },
  {
    "name": "ケアタウン成増",
    "address": "東京都板橋区成増４－１４－１８",
    "lng": 139.6353,
    "lat": 35.78327
  },
  {
    "name": "ニチイケアセンター小茂根",
    "address": "東京都板橋区小茂根五丁目４番４１号",
    "lng": 139.6754,
    "lat": 35.75057
  },
  {
    "name": "特定非営利活動法人　生活サポートひまわり",
    "address": "東京都板橋区常盤台１－５－１０平田ビル２階",
    "lng": 139.69064,
    "lat": 35.7593
  },
  {
    "name": "有限会社　希ケアーサービス",
    "address": "東京都板橋区幸町２０－１４",
    "lng": 139.6998,
    "lat": 35.74436
  },
  {
    "name": "ヘルパーステーション　上板橋",
    "address": "東京都板橋区常盤台４－２２－１２山和常盤台ビル",
    "lng": 139.6787,
    "lat": 35.76325
  },
  {
    "name": "有限会社　ウイング・ケアサービス",
    "address": "東京都板橋区蓮根２－３０－８",
    "lng": 139.67726,
    "lat": 35.78444
  },
  {
    "name": "一慶　ケアサービス",
    "address": "東京都板橋区赤塚一丁目３０番１６号　細田ビル１階",
    "lng": 139.64867,
    "lat": 35.77254
  },
  {
    "name": "めだかの学校　蓮根",
    "address": "東京都板橋区蓮根２－１０－１５",
    "lng": 139.6756,
    "lat": 35.78175
  },
  {
    "name": "ぐうにいずケアセンター",
    "address": "東京都板橋区西台４－８－１３ヒラタビル２Ｆ",
    "lng": 139.6691,
    "lat": 35.77177
  },
  {
    "name": "有限会社　赤塚ケアサービス",
    "address": "東京都板橋区赤塚２－８－１１",
    "lng": 139.64511,
    "lat": 35.77213
  },
  {
    "name": "社会福祉法人三共会　たつの子ライフ・サービス",
    "address": "東京都板橋区常盤台３－２４－１",
    "lng": 139.6835,
    "lat": 35.76365
  },
  {
    "name": "ニコニコ介護つくしんぼ",
    "address": "東京都板橋区大山西町７０－１０－２階",
    "lng": 139.69354,
    "lat": 35.74726
  },
  {
    "name": "東京ＹＷＣＡケアサポート　板橋",
    "address": "東京都板橋区坂下１－３４－２５",
    "lng": 139.68442,
    "lat": 35.78096
  },
  {
    "name": "社会福祉法人　北野会　ヘルパーステーション　マイライフ徳丸",
    "address": "東京都板橋区徳丸三丁目３２番２８号",
    "lng": 139.65707,
    "lat": 35.77462
  },
  {
    "name": "有限会社　さくら苑",
    "address": "東京都板橋区上板橋２－２９－９ボゥソレイユ１階",
    "lng": 139.67397,
    "lat": 35.76264
  },
  {
    "name": "株式会社オレンジ・ケアサービス",
    "address": "東京都板橋区徳丸７－２４－１５徳丸ビル２階",
    "lng": 139.66486,
    "lat": 35.78141
  },
  {
    "name": "アイ・ケアセンター畑　蓮根事業所",
    "address": "東京都板橋区蓮根２－２６－１７佐藤ビル１０２",
    "lng": 139.67589,
    "lat": 35.78385
  },
  {
    "name": "ケア２１　板橋",
    "address": "東京都板橋区大山西町９－３",
    "lng": 139.69818,
    "lat": 35.74669
  },
  {
    "name": "テルウェル東日本　板橋介護センタ",
    "address": "東京都板橋区南常盤台２－１４－１　マサルコーポ１０２号",
    "lng": 139.68567,
    "lat": 35.75879
  },
  {
    "name": "レインボーブリッジ　板橋ケアセンター",
    "address": "東京都板橋区板橋３－５－１５",
    "lng": 139.71191,
    "lat": 35.75045
  },
  {
    "name": "ケアステーションフレンズ",
    "address": "東京都板橋区常盤台４－２１－７友野ビル１階",
    "lng": 139.67888,
    "lat": 35.7636
  },
  {
    "name": "さくらヘルプケア",
    "address": "東京都板橋区高島平１－４８－５　コーポ高島平１０２",
    "lng": 139.66898,
    "lat": 35.78431
  },
  {
    "name": "ケア　サポート　やよい",
    "address": "東京都板橋区弥生町７８－４",
    "lng": 139.69122,
    "lat": 35.75326
  },
  {
    "name": "有限会社訪問介護　てんとう虫",
    "address": "東京都板橋区高島平９－２８－７技興舎ビル１Ｆ",
    "lng": 139.67055,
    "lat": 35.78999
  },
  {
    "name": "有限会社　ヘルパーステーション　にりんそう",
    "address": "東京都板橋区東坂下２－１１－１４興栄ビル２０１",
    "lng": 139.68661,
    "lat": 35.78505
  },
  {
    "name": "青出木訪問看護ステーション",
    "address": "東京都板橋区小茂根１－２７－１６－１０３",
    "lng": 139.67764,
    "lat": 35.74601
  },
  {
    "name": "ミクロケア　いたばし",
    "address": "東京都板橋区板橋２－１－１３コスモ板橋１０５",
    "lng": 139.71465,
    "lat": 35.74662
  },
  {
    "name": "灯の会",
    "address": "東京都板橋区高島平九丁目２９番３号　エステート野口１Ｆ",
    "lng": 139.67053,
    "lat": 35.79036
  },
  {
    "name": "医療法人財団　朔望会　訪問介護エーデルワイス四葉",
    "address": "東京都板橋区四葉２－２１－１７　１階",
    "lng": 139.65068,
    "lat": 35.783
  },
  {
    "name": "介護センターともに",
    "address": "東京都板橋区栄町２０－５小田嶋ビル１Ｆ",
    "lng": 139.70299,
    "lat": 35.75351
  },
  {
    "name": "介護ステーションさわやか☆ケア",
    "address": "東京都板橋区桜川３－１３－１０ヴィラカミング３０５",
    "lng": 139.6743,
    "lat": 35.76001
  },
  {
    "name": "有限会社中板橋介護支援センター",
    "address": "東京都板橋区中板橋４－１５　１０４",
    "lng": 139.69972,
    "lat": 35.75601
  },
  {
    "name": "有限会社　介護福祉サービス　高島平介護センター",
    "address": "東京都板橋区高島平２－２６－３－１０７",
    "lng": 139.66344,
    "lat": 35.78355
  },
  {
    "name": "あい介護サービス板橋",
    "address": "東京都板橋区東新町２－５７－７ＴＦビル１Ｆ",
    "lng": 139.68335,
    "lat": 35.75275
  },
  {
    "name": "ブリッジ",
    "address": "東京都板橋区南町３５－５庄野ビル１０２号",
    "lng": 139.70023,
    "lat": 35.74015
  },
  {
    "name": "くんちゃんず　訪問介護事業所",
    "address": "東京都板橋区双葉町４０－９",
    "lng": 139.6992,
    "lat": 35.75898
  },
  {
    "name": "愛のケアサービス有限会社",
    "address": "東京都板橋区富士見町２９－８",
    "lng": 139.69714,
    "lat": 35.76248
  },
  {
    "name": "ニューエイジサービス",
    "address": "東京都板橋区大谷口１－２８－３スペースガルボ１０１",
    "lng": 139.69159,
    "lat": 35.74313
  },
  {
    "name": "東電さわやかケア・成増・訪問介護",
    "address": "東京都板橋区成増１－１５－３　プラゼール成増",
    "lng": 139.63191,
    "lat": 35.77514
  },
  {
    "name": "有限会社　ケアワーカー中ノ宮",
    "address": "東京都練馬区春日町３－３３－２２　中ノ宮ビル２Ｆ",
    "lng": 139.64217,
    "lat": 35.75201
  },
  {
    "name": "ケアセンター・みやぞの練馬店",
    "address": "東京都練馬区立野町１４番２３号",
    "lng": 139.58275,
    "lat": 35.71721
  },
  {
    "name": "指定訪問介護事業所　株式会社　ケアサービス伊東　大泉営業所",
    "address": "東京都練馬区東大泉２－８－７パレスフォンテーン３　１０２号室",
    "lng": 139.59354,
    "lat": 35.75099
  },
  {
    "name": "株式会社　女性能力開発研究所　訪問介護サービス　ひだまり練馬",
    "address": "東京都練馬区大泉町２－６２－１１",
    "lng": 139.60826,
    "lat": 35.76382
  },
  {
    "name": "有限会社　介護ケア・ワーカー緑が丘",
    "address": "東京都練馬区南大泉３－７－５１",
    "lng": 139.57268,
    "lat": 35.7425
  },
  {
    "name": "株式会社　大起エンゼルヘルプ　練馬ケアセンター",
    "address": "東京都練馬区貫井２－２４－２　ニューパールマンション１階",
    "lng": 139.63406,
    "lat": 35.74032
  },
  {
    "name": "有限会社豊玉ハートランド",
    "address": "東京都練馬区豊玉中３－１６－１３　サンワコーポラス",
    "lng": 139.65422,
    "lat": 35.73262
  },
  {
    "name": "有限会社　ハーティー・ケア",
    "address": "東京都練馬区上石神井２－３０－２０Ｔ．Ｍ．Ｆビル１階",
    "lng": 139.5934,
    "lat": 35.728
  },
  {
    "name": "指定訪問介護事業所　株式会社　ケアサービス伊東　早宮営業所",
    "address": "東京都練馬区早宮２－１６－２６",
    "lng": 139.65497,
    "lat": 35.75675
  },
  {
    "name": "有限会社　みゆき介護センター",
    "address": "東京都練馬区貫井１－２８－２",
    "lng": 139.63123,
    "lat": 35.7364
  },
  {
    "name": "有限会社　シルバーケアサービス豊住",
    "address": "東京都練馬区早宮３－９－２１",
    "lng": 139.65471,
    "lat": 35.75167
  },
  {
    "name": "薬師堂介護サービス",
    "address": "東京都練馬区富士見台３－５５－３",
    "lng": 139.62099,
    "lat": 35.73956
  },
  {
    "name": "株式会社　ヘルプメイト関町訪問介護部",
    "address": "東京都練馬区関町北４－２－１２　ワイズビル２Ｆ",
    "lng": 139.57668,
    "lat": 35.72779
  },
  {
    "name": "第２育秀苑　ホームヘルプサービス事業所",
    "address": "東京都練馬区羽沢２－８－１６",
    "lng": 139.67143,
    "lat": 35.74367
  },
  {
    "name": "練馬キングス・ガーデン　ホームヘルプサービス事業所",
    "address": "東京都練馬区早宮２－１０－２２",
    "lng": 139.65329,
    "lat": 35.75457
  },
  {
    "name": "株式会社　さかえケア・サービス",
    "address": "東京都練馬区豊玉北５－１１－４さかえビル２０１",
    "lng": 139.65558,
    "lat": 35.73407
  },
  {
    "name": "新江古田ヘルパーステーション",
    "address": "東京都練馬区豊玉北１－１２－１６",
    "lng": 139.66885,
    "lat": 35.7347
  },
  {
    "name": "田柄訪問介護事業所",
    "address": "東京都練馬区田柄４－１２－１０",
    "lng": 139.63596,
    "lat": 35.7631
  },
  {
    "name": "関町訪問介護事業所",
    "address": "東京都練馬区関町南４－９－２８",
    "lng": 139.57393,
    "lat": 35.7223
  },
  {
    "name": "大泉訪問介護事業所",
    "address": "東京都練馬区東大泉２－１１－２１",
    "lng": 139.59486,
    "lat": 35.75139
  },
  {
    "name": "第二光陽苑ホームヘルプサービス",
    "address": "東京都練馬区関町北５－７－２２",
    "lng": 139.57187,
    "lat": 35.73219
  },
  {
    "name": "光陽苑ホームヘルプサービス",
    "address": "東京都練馬区西大泉５－２１－２",
    "lng": 139.56943,
    "lat": 35.75809
  },
  {
    "name": "やすらぎ舎ヘルパーステーション",
    "address": "東京都練馬区大泉学園町七丁目１２番３２号",
    "lng": 139.5896,
    "lat": 35.77274
  },
  {
    "name": "訪問介護　花ちゃんセンター",
    "address": "東京都練馬区向山２－１７－２１",
    "lng": 139.64316,
    "lat": 35.74051
  },
  {
    "name": "おおきなき練馬",
    "address": "東京都練馬区豊玉北６－３－３第８平和ビル４０５号",
    "lng": 139.65242,
    "lat": 35.73608
  },
  {
    "name": "ケアプランニング結い",
    "address": "東京都練馬区東大泉３－２２－１５シンフォニープラザ１Ｆ",
    "lng": 139.58672,
    "lat": 35.75229
  },
  {
    "name": "ニチイケアセンター大泉",
    "address": "東京都練馬区東大泉３－１－５スプリング東ビル２０１",
    "lng": 139.59196,
    "lat": 35.75096
  },
  {
    "name": "まごの手ホームヘルプサービス指定訪問介護事業所",
    "address": "東京都練馬区豊玉北５－４－７－１０２",
    "lng": 139.65588,
    "lat": 35.73608
  },
  {
    "name": "やさしい手石神井公園訪問介護事業所",
    "address": "東京都練馬区石神井町２－１３－１７　龍英ビル３階",
    "lng": 139.60854,
    "lat": 35.74459
  },
  {
    "name": "有限会社　石神井接骨院　介護ケアプランサービス",
    "address": "東京都練馬区下石神井４－２７－７",
    "lng": 139.60123,
    "lat": 35.72587
  },
  {
    "name": "青空ケアサポートセンター有限会社",
    "address": "東京都練馬区西大泉六丁目１４番２０号",
    "lng": 139.56619,
    "lat": 35.76135
  },
  {
    "name": "有限会社　すこやかケア下石神井",
    "address": "東京都練馬区下石神井２－５－３",
    "lng": 139.60811,
    "lat": 35.73021
  },
  {
    "name": "ＮＰＯ・アクト練馬ふろしき",
    "address": "東京都練馬区練馬４－１７－２グリンデル豊島園１０２",
    "lng": 139.64772,
    "lat": 35.74271
  },
  {
    "name": "訪問介護サービスひのき",
    "address": "東京都練馬区大泉学園町６－２７－４３",
    "lng": 139.58499,
    "lat": 35.77217
  },
  {
    "name": "高野台訪問介護ステーション",
    "address": "東京都練馬区高野台五丁目２４番１号",
    "lng": 139.60966,
    "lat": 35.74658
  },
  {
    "name": "秋桜ケアサービス",
    "address": "東京都練馬区関町北３－４３－７",
    "lng": 139.56876,
    "lat": 35.72599
  },
  {
    "name": "ハートケアサービス（有）練馬",
    "address": "東京都練馬区田柄２－３６－１３　白瀧マンションⅡ１０１号",
    "lng": 139.64386,
    "lat": 35.7684
  },
  {
    "name": "介護サポートかがやき有限会社",
    "address": "東京都練馬区北町８－３－２０",
    "lng": 139.65024,
    "lat": 35.76397
  },
  {
    "name": "指定訪問介護事業所　株式会社　ケアサービス伊東　練馬営業所",
    "address": "東京都練馬区豊玉北四丁目２３番９号　タワーイン豊玉１階",
    "lng": 139.65785,
    "lat": 35.73544
  },
  {
    "name": "ヘルパーステーションさくらの苑",
    "address": "東京都練馬区北町八丁目２１番１９号",
    "lng": 139.65158,
    "lat": 35.76694
  },
  {
    "name": "ふくいんヘルパーステーション大泉学園",
    "address": "東京都練馬区大泉学園町二丁目２０番２１号",
    "lng": 139.58798,
    "lat": 35.75937
  },
  {
    "name": "シルバーハート光が丘介護支援センター",
    "address": "東京都練馬区田柄５－２０－２８",
    "lng": 139.63484,
    "lat": 35.75937
  },
  {
    "name": "株式会社　早宮エンジニアリング",
    "address": "東京都練馬区早宮一丁目２９番１５号",
    "lng": 139.65822,
    "lat": 35.75009
  },
  {
    "name": "ＮＰＯエプロン訪問介護",
    "address": "東京都練馬区石神井町８－５３－２４",
    "lng": 139.59822,
    "lat": 35.7502
  },
  {
    "name": "東京保健生活協同組合　介護センター　健生練馬",
    "address": "東京都練馬区石神井町５－４－１２若尾ホームビル１０２",
    "lng": 139.6059,
    "lat": 35.73803
  },
  {
    "name": "アースサポート練馬",
    "address": "東京都練馬区豊玉上２－２５－９",
    "lng": 139.65846,
    "lat": 35.73795
  },
  {
    "name": "ＮＰＯむすび",
    "address": "東京都練馬区光が丘３－９－３－２０６",
    "lng": 139.62582,
    "lat": 35.75798
  },
  {
    "name": "ヘルパーステーション　すずらんの会",
    "address": "東京都西東京市泉町２－１７－１８－Ｂ１０１",
    "lng": 139.55208,
    "lat": 35.74118
  },
  {
    "name": "福祉の森　さくら介護センター桜台",
    "address": "東京都練馬区豊玉上二丁目１５番９号　桜台駅前オリンピックビル２０１号",
    "lng": 139.66179,
    "lat": 35.73786
  },
  {
    "name": "富士見台訪問介護事業所",
    "address": "東京都練馬区中村北３－２１－８奈良ビル４階",
    "lng": 139.63902,
    "lat": 35.7352
  },
  {
    "name": "ケアサポートサニーサイド",
    "address": "東京都練馬区石神井町七丁目１番１４号　石神井スカイビル５０５",
    "lng": 139.60291,
    "lat": 35.74443
  },
  {
    "name": "ハッピーケアサービス",
    "address": "東京都練馬区北町２－３１－２２",
    "lng": 139.65782,
    "lat": 35.7681
  },
  {
    "name": "訪問介護　らいじんぐ",
    "address": "東京都練馬区大泉町１－４４－１７",
    "lng": 139.60442,
    "lat": 35.76761
  },
  {
    "name": "訪問介護事業所　縁（ゆかり）",
    "address": "東京都練馬区石神井台７－４－１５石神井台７　テラスハウス",
    "lng": 139.58054,
    "lat": 35.72972
  },
  {
    "name": "コミュニティ・ケア",
    "address": "東京都練馬区西大泉３－２６－１５さかえやビル２Ｆ",
    "lng": 139.57954,
    "lat": 35.76181
  },
  {
    "name": "ふれあい介護サービス　練馬",
    "address": "東京都練馬区豊玉上２－２１－６",
    "lng": 139.6606,
    "lat": 35.73782
  },
  {
    "name": "株式会社日本ケアプラザ練馬ステーション",
    "address": "東京都練馬区東大泉５－４０－３５学園シティハイムＢ２０２",
    "lng": 139.58743,
    "lat": 35.74857
  },
  {
    "name": "ヘルパーステーション　ぬくもり",
    "address": "東京都練馬区練馬１－１５－１　堀越ビル２階",
    "lng": 139.65254,
    "lat": 35.7385
  },
  {
    "name": "ヘルパーステーション　花ごころ",
    "address": "東京都練馬区南大泉４－４３－３８",
    "lng": 139.57204,
    "lat": 35.7462
  },
  {
    "name": "ライフケアサービス春風",
    "address": "東京都練馬区土支田４－６－１２ＨＩビレッジＡ－１",
    "lng": 139.61554,
    "lat": 35.76695
  },
  {
    "name": "愛介護サービス",
    "address": "東京都練馬区早宮２－１６－１８",
    "lng": 139.65497,
    "lat": 35.75675
  },
  {
    "name": "介護サービス　こころ",
    "address": "東京都練馬区西大泉５－３７－８",
    "lng": 139.56467,
    "lat": 35.75942
  },
  {
    "name": "めぐみの会",
    "address": "東京都練馬区石神井町５－３－１２　１階",
    "lng": 139.60674,
    "lat": 35.73892
  },
  {
    "name": "ときわ・ふれあいサービス",
    "address": "東京都練馬区平和台１－３１－１７サンハイツ２０００　１０１",
    "lng": 139.66302,
    "lat": 35.75732
  },
  {
    "name": "ケア２１　練馬",
    "address": "東京都練馬区中村北４－２－２中村橋駅前ビル３階",
    "lng": 139.63766,
    "lat": 35.73637
  },
  {
    "name": "プラチナ訪問介護ステーション練馬店",
    "address": "東京都練馬区貫井２－１１－６",
    "lng": 139.6353,
    "lat": 35.73997
  },
  {
    "name": "ニチイケアセンター中村橋",
    "address": "東京都練馬区貫井１－３９－１ベルヴィコート１階",
    "lng": 139.63484,
    "lat": 35.73605
  },
  {
    "name": "柏の友訪問介護事業所",
    "address": "東京都練馬区貫井３－５－６ドンズビル３０２",
    "lng": 139.62794,
    "lat": 35.7355
  },
  {
    "name": "株式会社　日本ケアプラザ光が丘ステーション",
    "address": "東京都練馬区田柄５－１７－１６　光が丘フォーリア　１０６号",
    "lng": 139.63272,
    "lat": 35.75813
  },
  {
    "name": "スマイルケアねりま",
    "address": "東京都練馬区高松１－１３－９",
    "lng": 139.63474,
    "lat": 35.74786
  },
  {
    "name": "やさしい手練馬訪問介護事業所",
    "address": "東京都練馬区豊玉北５－２５－２１　エクセレントハイム１Ｆ",
    "lng": 139.65446,
    "lat": 35.73411
  },
  {
    "name": "ライフサポートさくら",
    "address": "東京都練馬区中村北２－２－３　メゾン練馬－１０１・１０２",
    "lng": 139.64473,
    "lat": 35.73702
  },
  {
    "name": "いずみ医療生協訪問介護事業所",
    "address": "東京都練馬区大泉町六丁目２９番２０号　学園スカイビル",
    "lng": 139.59074,
    "lat": 35.75775
  },
  {
    "name": "フレンドリーサポート介護サービス",
    "address": "東京都練馬区関町北二丁目２５番地１１号ユアーズ・ムサシセキ２０１",
    "lng": 139.57588,
    "lat": 35.72644
  },
  {
    "name": "アースサポート大泉学園",
    "address": "東京都練馬区東大泉三丁目６６番１６号",
    "lng": 139.58832,
    "lat": 35.75675
  },
  {
    "name": "梅のさと　介護センター",
    "address": "東京都練馬区石神井台２－７－２",
    "lng": 139.59146,
    "lat": 35.73483
  },
  {
    "name": "あい介護サービス練馬",
    "address": "東京都練馬区豊玉北３－２９－４サンハイツ豊玉１０２",
    "lng": 139.66089,
    "lat": 35.7347
  },
  {
    "name": "安心生活サービス",
    "address": "東京都練馬区東大泉６－４２－２８スカイハイツ１０５",
    "lng": 139.58224,
    "lat": 35.74673
  },
  {
    "name": "ふぁみりぃケアサービス",
    "address": "東京都練馬区田柄２－２２－２２　木内コーポ１０１",
    "lng": 139.64568,
    "lat": 35.76452
  },
  {
    "name": "けんしん石神井公園訪問介護事業所",
    "address": "東京都練馬区石神井町３－１９－１６石神井公園ＭＳＰ②ビル　２階Ｃ号室",
    "lng": 139.60568,
    "lat": 35.74262
  },
  {
    "name": "ケアセンター　あんたがた",
    "address": "東京都練馬区春日町３－５－１０",
    "lng": 139.64252,
    "lat": 35.74773
  },
  {
    "name": "ゆめの園春日町ヘルパーステーション",
    "address": "東京都練馬区春日町５－３３－３３",
    "lng": 139.63802,
    "lat": 35.74973
  },
  {
    "name": "フレンドケアサービス",
    "address": "東京都練馬区谷原６－８－１０",
    "lng": 139.60829,
    "lat": 35.75517
  },
  {
    "name": "かんなな",
    "address": "東京都杉並区天沼３－１４－２プレジデント荻窪１０８号",
    "lng": 139.61754,
    "lat": 35.70851
  },
  {
    "name": "ニッセイ・ケア",
    "address": "東京都足立区谷在家２－１２－３",
    "lng": 139.76559,
    "lat": 35.78342
  },
  {
    "name": "株式会社　梅元ケアセンター",
    "address": "東京都足立区西新井６－３－８",
    "lng": 139.77663,
    "lat": 35.77865
  },
  {
    "name": "有限会社　あすなろ会",
    "address": "東京都足立区保木間５－１０－２２",
    "lng": 139.80313,
    "lat": 35.80031
  },
  {
    "name": "株式会社　大起エンゼルヘルプ　足立ケアセンター",
    "address": "東京都足立区東和２－２６－１５ハイクレスト海老原ＮＯ３　１Ｆ",
    "lng": 139.84279,
    "lat": 35.77027
  },
  {
    "name": "わかばケアセンター　平野",
    "address": "東京都足立区平野２－８－２",
    "lng": 139.80327,
    "lat": 35.78373
  },
  {
    "name": "東伊興指定訪問介護事業所",
    "address": "東京都足立区東伊興３－１９－１０国寿マンション１０５号室",
    "lng": 139.79312,
    "lat": 35.80299
  },
  {
    "name": "竹の塚ヘルパーステーション",
    "address": "東京都足立区竹の塚１－２５－２１芳将ビル２０３",
    "lng": 139.79172,
    "lat": 35.79133
  },
  {
    "name": "佐々木ケアサービス株式会社　在宅介護事業部",
    "address": "東京都足立区足立４－３７－１１",
    "lng": 139.80792,
    "lat": 35.76551
  },
  {
    "name": "ヘルパーステーション　ゆいま～る",
    "address": "東京都足立区千住仲町１６－４",
    "lng": 139.7993,
    "lat": 35.74641
  },
  {
    "name": "日介センター足立東",
    "address": "東京都足立区竹の塚５－１－１４",
    "lng": 139.79759,
    "lat": 35.79339
  },
  {
    "name": "東京高齢協　のぞみ",
    "address": "東京都足立区梅田７－２９－１２",
    "lng": 139.79993,
    "lat": 35.77079
  },
  {
    "name": "日介センター足立",
    "address": "東京都足立区西新井１－３８－１８コーラルコート１階",
    "lng": 139.78082,
    "lat": 35.78236
  },
  {
    "name": "城北介護センター",
    "address": "東京都足立区千住宮元町３０－４",
    "lng": 139.79526,
    "lat": 35.74918
  },
  {
    "name": "成仁訪問介護事業部",
    "address": "東京都足立区中川４－２－１４",
    "lng": 139.84535,
    "lat": 35.76981
  },
  {
    "name": "ハートぽっぽ",
    "address": "東京都足立区保木間１－５－２１",
    "lng": 139.80504,
    "lat": 35.79
  },
  {
    "name": "ヘルパーステーションかるがも",
    "address": "東京都足立区梅島１－１３－１７",
    "lng": 139.79805,
    "lat": 35.7729
  },
  {
    "name": "医療法人財団　厚生協会　ホームヘルプサービス保木間",
    "address": "東京都足立区花畑４－３２－８",
    "lng": 139.80521,
    "lat": 35.80426
  },
  {
    "name": "おおきなき足立",
    "address": "東京都足立区梅田７－３４－１３マルマンプルニエコーポ４０３号",
    "lng": 139.79794,
    "lat": 35.77121
  },
  {
    "name": "ヘルパーステーション六月",
    "address": "東京都足立区六月１－６－１",
    "lng": 139.80037,
    "lat": 35.78555
  },
  {
    "name": "小松整骨院　訪問介護サービス",
    "address": "東京都足立区入谷３－５－１０",
    "lng": 139.76181,
    "lat": 35.80898
  },
  {
    "name": "ニチイケアセンター足立",
    "address": "東京都足立区中央本町４－１０－２",
    "lng": 139.80652,
    "lat": 35.77423
  },
  {
    "name": "ふれあい綾瀬",
    "address": "東京都足立区綾瀬２－２６－１５　第５鳥塚ビル２０３",
    "lng": 139.82716,
    "lat": 35.76189
  },
  {
    "name": "なつい・ケアサービス",
    "address": "東京都足立区竹の塚５－８－１４",
    "lng": 139.79558,
    "lat": 35.79452
  },
  {
    "name": "おだい介護サービス有限会社",
    "address": "東京都足立区小台２－２３－８",
    "lng": 139.7579,
    "lat": 35.75749
  },
  {
    "name": "有限会社　ケアプランナー鈴蘭",
    "address": "東京都足立区島根二丁目２０番１４号",
    "lng": 139.7981,
    "lat": 35.7829
  },
  {
    "name": "さくらケアシステム",
    "address": "東京都足立区西新井栄町２－１７－１８－１０２",
    "lng": 139.78699,
    "lat": 35.77657
  },
  {
    "name": "中央本町ヘルパーステーション",
    "address": "東京都足立区中央本町４－１４－２０",
    "lng": 139.8085,
    "lat": 35.77633
  },
  {
    "name": "ヘルパーステーションはごろも",
    "address": "東京都足立区西新井五丁目３４番１号",
    "lng": 139.77475,
    "lat": 35.78546
  },
  {
    "name": "有限会社　ヘルプアンドケア",
    "address": "東京都足立区皿沼２－８－１５ランドフォレスト足立皿沼Ⅰ－２０２",
    "lng": 139.76834,
    "lat": 35.7906
  },
  {
    "name": "イーストピア東和",
    "address": "東京都足立区東和４－７－２３",
    "lng": 139.84348,
    "lat": 35.77267
  },
  {
    "name": "有限会社　ユウシンケアサービス",
    "address": "東京都足立区青井三丁目３６番４号",
    "lng": 139.81888,
    "lat": 35.77356
  },
  {
    "name": "ワーカーズコープ・よつば",
    "address": "東京都足立区千住東２-４-４",
    "lng": 139.806,
    "lat": 35.74665
  },
  {
    "name": "特定医療法人社団　潤恵会　ひのき　ヘルパーステーション",
    "address": "東京都足立区新田２－１６－１３",
    "lng": 139.74147,
    "lat": 35.77354
  },
  {
    "name": "株式会社　あおばライフケア",
    "address": "東京都足立区梅島三丁目３３番１号",
    "lng": 139.79111,
    "lat": 35.77817
  },
  {
    "name": "ホットプランニング足立有限会社　介護支援事業部",
    "address": "東京都足立区綾瀬５－７－９シティービル１階Ｂ号",
    "lng": 139.8248,
    "lat": 35.76818
  },
  {
    "name": "特定非営利活動法人　ぷらちなくらぶ",
    "address": "東京都足立区加平１－８－２３",
    "lng": 139.82626,
    "lat": 35.77526
  },
  {
    "name": "ウイズネットホームヘルプサービス　足立",
    "address": "東京都足立区花畑４－３９－１４ガーデンパレスヌマタ２Ｆ－Ｂ",
    "lng": 139.80998,
    "lat": 35.80608
  },
  {
    "name": "さくら　ケアセンター",
    "address": "東京都足立区千住旭町４－１８",
    "lng": 139.80699,
    "lat": 35.74847
  },
  {
    "name": "城北介護センター　保木間",
    "address": "東京都足立区花畑１－１６－１３鈴木第２ビル１０１",
    "lng": 139.81235,
    "lat": 35.7987
  },
  {
    "name": "シルバーキッズ",
    "address": "東京都足立区大谷田１－７－１１",
    "lng": 139.84647,
    "lat": 35.77702
  },
  {
    "name": "わかばケアセンター　大谷田",
    "address": "東京都足立区大谷田１－４－７",
    "lng": 139.84512,
    "lat": 35.77807
  },
  {
    "name": "有限会社ハンド・イン・ハンド",
    "address": "東京都足立区西新井５－２－１４",
    "lng": 139.7778,
    "lat": 35.78292
  },
  {
    "name": "ヒューマンサービス　やすらぎ",
    "address": "東京都足立区島根３－８－１山一ビル５Ｆ",
    "lng": 139.79166,
    "lat": 35.77884
  },
  {
    "name": "プロケア壮健",
    "address": "東京都足立区千住４－１６－１２横山ビル１階",
    "lng": 139.80365,
    "lat": 35.7538
  },
  {
    "name": "城北介護センター東和",
    "address": "東京都足立区東和４－８－２１　ヤクルトハイツ東和１Ｆ",
    "lng": 139.84207,
    "lat": 35.77249
  },
  {
    "name": "明日香介護サービス",
    "address": "東京都足立区関原一丁目９番２０号",
    "lng": 139.78847,
    "lat": 35.76454
  },
  {
    "name": "有限会社　ひだまり介護サービス",
    "address": "東京都足立区青井３－８－４ＭＪビル１階",
    "lng": 139.82033,
    "lat": 35.76997
  },
  {
    "name": "えくぼケアセンター",
    "address": "東京都足立区西保木間２－８－１９グレイス竹の塚Ⅱ",
    "lng": 139.80109,
    "lat": 35.80053
  },
  {
    "name": "サッパリサポート",
    "address": "東京都足立区西綾瀬３－６－３",
    "lng": 139.81694,
    "lat": 35.76247
  },
  {
    "name": "日介センター足立西",
    "address": "東京都足立区西綾瀬２丁目７の９　西綾瀬プラザ１０１",
    "lng": 139.81416,
    "lat": 35.76318
  },
  {
    "name": "まるしょう有限会社",
    "address": "東京都足立区谷中一丁目３１番１１号",
    "lng": 139.83502,
    "lat": 35.77303
  },
  {
    "name": "訪問介護いきいき生活",
    "address": "東京都足立区伊興１－５－１６ネット第７７ビル１階",
    "lng": 139.78442,
    "lat": 35.78808
  },
  {
    "name": "介護のまこと",
    "address": "東京都足立区柳原２－１７－１０　櫻Terrace１０１",
    "lng": 139.81108,
    "lat": 35.74709
  },
  {
    "name": "ライフステージ　ひびき",
    "address": "東京都足立区千住１－３５－２スカイコーポ７７　１階",
    "lng": 139.80318,
    "lat": 35.74771
  },
  {
    "name": "ヘルパーステーション・扇",
    "address": "東京都足立区扇一丁目５２番２３号",
    "lng": 139.77408,
    "lat": 35.76691
  },
  {
    "name": "ニチイケアセンター竹の塚",
    "address": "東京都足立区西竹の塚２－２－３第二末武ビル２Ｆ",
    "lng": 139.7899,
    "lat": 35.79441
  },
  {
    "name": "こもれび介護サービス",
    "address": "東京都足立区本木２－１３－２２",
    "lng": 139.78407,
    "lat": 35.76417
  },
  {
    "name": "足立ケア２１訪問介護ステーション",
    "address": "東京都足立区伊興３－１２－１２　ヒルマハイツ１０１",
    "lng": 139.7859,
    "lat": 35.79329
  },
  {
    "name": "介護の一休",
    "address": "東京都足立区南花畑４－１７－８ＡＥＲビル２階",
    "lng": 139.81888,
    "lat": 35.79701
  },